,stop_id,difference,actual_time,departure_time,stop_name,stop_lat,stop_lon
0,902700,136,4/7/2018 6:28,6:25:00 AM,ROSWELL RD NE @ HILDERBRAND DR,33.922703,-84.379218
1,902700,-44,4/7/2018 12:25,12:25:00 PM,ROSWELL RD NE @ HILDERBRAND DR,33.922703,-84.379218
2,902700,16,4/7/2018 14:26,2:25:00 PM,ROSWELL RD NE @ HILDERBRAND DR,33.922703,-84.379218
3,902700,256,4/7/2018 16:30,4:25:00 PM,ROSWELL RD NE @ HILDERBRAND DR,33.922703,-84.379218
4,902700,76,4/7/2018 18:27,6:25:00 PM,ROSWELL RD NE @ HILDERBRAND DR,33.922703,-84.379218
5,902700,71,4/7/2018 22:09,10:07:00 PM,ROSWELL RD NE @ HILDERBRAND DR,33.922703,-84.379218
6,902700,76,4/7/2018 8:47,8:45:00 AM,ROSWELL RD NE @ HILDERBRAND DR,33.922703,-84.379218
7,902700,196,4/7/2018 12:49,12:45:00 PM,ROSWELL RD NE @ HILDERBRAND DR,33.922703,-84.379218
8,902700,196,4/7/2018 14:49,2:45:00 PM,ROSWELL RD NE @ HILDERBRAND DR,33.922703,-84.379218
9,902700,196,4/7/2018 9:49,9:45:00 AM,ROSWELL RD NE @ HILDERBRAND DR,33.922703,-84.379218
10,902700,76,4/7/2018 15:47,3:45:00 PM,ROSWELL RD NE @ HILDERBRAND DR,33.922703,-84.379218
11,902700,76,4/7/2018 7:07,7:05:00 AM,ROSWELL RD NE @ HILDERBRAND DR,33.922703,-84.379218
12,902700,196,4/7/2018 11:09,11:05:00 AM,ROSWELL RD NE @ HILDERBRAND DR,33.922703,-84.379218
13,902700,136,4/7/2018 13:08,1:05:00 PM,ROSWELL RD NE @ HILDERBRAND DR,33.922703,-84.379218
14,902700,256,4/7/2018 15:10,3:05:00 PM,ROSWELL RD NE @ HILDERBRAND DR,33.922703,-84.379218
15,902700,76,4/7/2018 17:07,5:05:00 PM,ROSWELL RD NE @ HILDERBRAND DR,33.922703,-84.379218
16,902700,76,4/7/2018 19:07,7:05:00 PM,ROSWELL RD NE @ HILDERBRAND DR,33.922703,-84.379218
17,902700,-49,4/7/2018 22:47,10:47:00 PM,ROSWELL RD NE @ HILDERBRAND DR,33.922703,-84.379218
18,902700,256,4/7/2018 5:30,5:25:00 AM,ROSWELL RD NE @ HILDERBRAND DR,33.922703,-84.379218
19,902700,-44,4/7/2018 15:25,3:25:00 PM,ROSWELL RD NE @ HILDERBRAND DR,33.922703,-84.379218
20,902700,-44,4/7/2018 17:25,5:25:00 PM,ROSWELL RD NE @ HILDERBRAND DR,33.922703,-84.379218
21,902700,76,4/7/2018 19:27,7:25:00 PM,ROSWELL RD NE @ HILDERBRAND DR,33.922703,-84.379218
22,902700,-49,4/7/2018 21:27,9:27:00 PM,ROSWELL RD NE @ HILDERBRAND DR,33.922703,-84.379218
23,902700,-104,4/7/2018 14:04,2:05:00 PM,ROSWELL RD NE @ HILDERBRAND DR,33.922703,-84.379218
24,902700,256,4/7/2018 16:10,4:05:00 PM,ROSWELL RD NE @ HILDERBRAND DR,33.922703,-84.379218
25,902700,76,4/7/2018 18:07,6:05:00 PM,ROSWELL RD NE @ HILDERBRAND DR,33.922703,-84.379218
26,902700,71,4/7/2018 23:29,11:27:00 PM,ROSWELL RD NE @ HILDERBRAND DR,33.922703,-84.379218
27,902751,120,4/7/2018 6:29,6:27:00 AM,ROSWELL RD NE @ HAMMOND DR NE,33.918641,-84.379085
28,902751,120,4/7/2018 14:29,2:27:00 PM,ROSWELL RD NE @ HAMMOND DR NE,33.918641,-84.379085
29,902751,60,4/7/2018 8:48,8:47:00 AM,ROSWELL RD NE @ HAMMOND DR NE,33.918641,-84.379085
30,902751,360,4/7/2018 14:53,2:47:00 PM,ROSWELL RD NE @ HAMMOND DR NE,33.918641,-84.379085
31,902751,180,4/7/2018 9:50,9:47:00 AM,ROSWELL RD NE @ HAMMOND DR NE,33.918641,-84.379085
32,902751,180,4/7/2018 15:50,3:47:00 PM,ROSWELL RD NE @ HAMMOND DR NE,33.918641,-84.379085
33,902751,60,4/7/2018 7:08,7:07:00 AM,ROSWELL RD NE @ HAMMOND DR NE,33.918641,-84.379085
34,902751,180,4/7/2018 11:10,11:07:00 AM,ROSWELL RD NE @ HAMMOND DR NE,33.918641,-84.379085
35,902751,120,4/7/2018 13:09,1:07:00 PM,ROSWELL RD NE @ HAMMOND DR NE,33.918641,-84.379085
36,902751,240,4/7/2018 15:11,3:07:00 PM,ROSWELL RD NE @ HAMMOND DR NE,33.918641,-84.379085
37,902751,360,4/7/2018 5:33,5:27:00 AM,ROSWELL RD NE @ HAMMOND DR NE,33.918641,-84.379085
38,902751,0,4/7/2018 9:27,9:27:00 AM,ROSWELL RD NE @ HAMMOND DR NE,33.918641,-84.379085
39,902751,0,4/7/2018 15:27,3:27:00 PM,ROSWELL RD NE @ HAMMOND DR NE,33.918641,-84.379085
40,902751,0,4/7/2018 17:27,5:27:00 PM,ROSWELL RD NE @ HAMMOND DR NE,33.918641,-84.379085
41,902751,0,4/7/2018 21:29,9:29:00 PM,ROSWELL RD NE @ HAMMOND DR NE,33.918641,-84.379085
42,902751,0,4/7/2018 8:07,8:07:00 AM,ROSWELL RD NE @ HAMMOND DR NE,33.918641,-84.379085
43,902751,180,4/7/2018 10:10,10:07:00 AM,ROSWELL RD NE @ HAMMOND DR NE,33.918641,-84.379085
44,902751,120,4/7/2018 12:09,12:07:00 PM,ROSWELL RD NE @ HAMMOND DR NE,33.918641,-84.379085
45,902751,0,4/7/2018 14:07,2:07:00 PM,ROSWELL RD NE @ HAMMOND DR NE,33.918641,-84.379085
46,902751,360,4/7/2018 16:13,4:07:00 PM,ROSWELL RD NE @ HAMMOND DR NE,33.918641,-84.379085
47,902751,120,4/7/2018 18:09,6:07:00 PM,ROSWELL RD NE @ HAMMOND DR NE,33.918641,-84.379085
48,902751,180,4/7/2018 23:32,11:29:00 PM,ROSWELL RD NE @ HAMMOND DR NE,33.918641,-84.379085
49,902699,149,4/7/2018 6:32,6:29:00 AM,ROSWELL RD NE @ LAKE PLACID DR NE,33.909002,-84.378784
50,902699,269,4/7/2018 16:34,4:29:00 PM,ROSWELL RD NE @ LAKE PLACID DR NE,33.909002,-84.378784
51,902699,149,4/7/2018 18:32,6:29:00 PM,ROSWELL RD NE @ LAKE PLACID DR NE,33.909002,-84.378784
52,902699,89,4/7/2018 22:13,10:11:00 PM,ROSWELL RD NE @ LAKE PLACID DR NE,33.909002,-84.378784
53,902699,-211,4/7/2018 23:48,11:51:00 PM,ROSWELL RD NE @ LAKE PLACID DR NE,33.909002,-84.378784
54,902699,149,4/7/2018 6:52,6:49:00 AM,ROSWELL RD NE @ LAKE PLACID DR NE,33.909002,-84.378784
55,902699,209,4/7/2018 8:53,8:49:00 AM,ROSWELL RD NE @ LAKE PLACID DR NE,33.909002,-84.378784
56,902699,149,4/7/2018 10:52,10:49:00 AM,ROSWELL RD NE @ LAKE PLACID DR NE,33.909002,-84.378784
57,902699,329,4/7/2018 12:55,12:49:00 PM,ROSWELL RD NE @ LAKE PLACID DR NE,33.909002,-84.378784
58,902699,449,4/7/2018 14:57,2:49:00 PM,ROSWELL RD NE @ LAKE PLACID DR NE,33.909002,-84.378784
59,902699,149,4/7/2018 16:52,4:49:00 PM,ROSWELL RD NE @ LAKE PLACID DR NE,33.909002,-84.378784
60,902699,-31,4/7/2018 5:49,5:49:00 AM,ROSWELL RD NE @ LAKE PLACID DR NE,33.909002,-84.378784
61,902699,269,4/7/2018 9:54,9:49:00 AM,ROSWELL RD NE @ LAKE PLACID DR NE,33.909002,-84.378784
62,902699,329,4/7/2018 13:55,1:49:00 PM,ROSWELL RD NE @ LAKE PLACID DR NE,33.909002,-84.378784
63,902699,209,4/7/2018 15:53,3:49:00 PM,ROSWELL RD NE @ LAKE PLACID DR NE,33.909002,-84.378784
64,902699,-31,4/7/2018 17:49,5:49:00 PM,ROSWELL RD NE @ LAKE PLACID DR NE,33.909002,-84.378784
65,902699,89,4/7/2018 19:51,7:49:00 PM,ROSWELL RD NE @ LAKE PLACID DR NE,33.909002,-84.378784
66,902699,29,4/7/2018 7:10,7:09:00 AM,ROSWELL RD NE @ LAKE PLACID DR NE,33.909002,-84.378784
67,902699,269,4/7/2018 9:14,9:09:00 AM,ROSWELL RD NE @ LAKE PLACID DR NE,33.909002,-84.378784
68,902699,269,4/7/2018 11:14,11:09:00 AM,ROSWELL RD NE @ LAKE PLACID DR NE,33.909002,-84.378784
69,902699,449,4/7/2018 13:17,1:09:00 PM,ROSWELL RD NE @ LAKE PLACID DR NE,33.909002,-84.378784
70,902699,329,4/7/2018 15:15,3:09:00 PM,ROSWELL RD NE @ LAKE PLACID DR NE,33.909002,-84.378784
71,902699,269,4/7/2018 17:14,5:09:00 PM,ROSWELL RD NE @ LAKE PLACID DR NE,33.909002,-84.378784
72,902699,209,4/7/2018 19:13,7:09:00 PM,ROSWELL RD NE @ LAKE PLACID DR NE,33.909002,-84.378784
73,902699,269,4/7/2018 21:16,9:11:00 PM,ROSWELL RD NE @ LAKE PLACID DR NE,33.909002,-84.378784
74,902699,29,4/7/2018 22:52,10:51:00 PM,ROSWELL RD NE @ LAKE PLACID DR NE,33.909002,-84.378784
75,902699,389,4/7/2018 5:36,5:29:00 AM,ROSWELL RD NE @ LAKE PLACID DR NE,33.909002,-84.378784
76,902699,29,4/7/2018 9:30,9:29:00 AM,ROSWELL RD NE @ LAKE PLACID DR NE,33.909002,-84.378784
77,902699,89,4/7/2018 15:31,3:29:00 PM,ROSWELL RD NE @ LAKE PLACID DR NE,33.909002,-84.378784
78,902699,89,4/7/2018 17:31,5:29:00 PM,ROSWELL RD NE @ LAKE PLACID DR NE,33.909002,-84.378784
79,902699,209,4/7/2018 19:33,7:29:00 PM,ROSWELL RD NE @ LAKE PLACID DR NE,33.909002,-84.378784
80,902699,-31,4/7/2018 6:09,6:09:00 AM,ROSWELL RD NE @ LAKE PLACID DR NE,33.909002,-84.378784
81,902699,29,4/7/2018 8:10,8:09:00 AM,ROSWELL RD NE @ LAKE PLACID DR NE,33.909002,-84.378784
82,902699,329,4/7/2018 10:15,10:09:00 AM,ROSWELL RD NE @ LAKE PLACID DR NE,33.909002,-84.378784
83,902699,149,4/7/2018 12:12,12:09:00 PM,ROSWELL RD NE @ LAKE PLACID DR NE,33.909002,-84.378784
84,902699,89,4/7/2018 14:11,2:09:00 PM,ROSWELL RD NE @ LAKE PLACID DR NE,33.909002,-84.378784
85,902699,449,4/7/2018 16:17,4:09:00 PM,ROSWELL RD NE @ LAKE PLACID DR NE,33.909002,-84.378784
86,902699,209,4/7/2018 18:13,6:09:00 PM,ROSWELL RD NE @ LAKE PLACID DR NE,33.909002,-84.378784
87,902699,89,4/7/2018 20:11,8:09:00 PM,ROSWELL RD NE @ LAKE PLACID DR NE,33.909002,-84.378784
88,902699,209,4/7/2018 21:55,9:51:00 PM,ROSWELL RD NE @ LAKE PLACID DR NE,33.909002,-84.378784
89,902699,269,4/7/2018 23:36,11:31:00 PM,ROSWELL RD NE @ LAKE PLACID DR NE,33.909002,-84.378784
90,905744,126,4/7/2018 6:34,6:31:00 AM,ROSWELL RD NE @ MARYEANNA DR,33.900208,-84.380478
91,905744,126,4/7/2018 8:34,8:31:00 AM,ROSWELL RD NE @ MARYEANNA DR,33.900208,-84.380478
92,905744,186,4/7/2018 14:35,2:31:00 PM,ROSWELL RD NE @ MARYEANNA DR,33.900208,-84.380478
93,905744,126,4/7/2018 8:54,8:51:00 AM,ROSWELL RD NE @ MARYEANNA DR,33.900208,-84.380478
94,905744,126,4/7/2018 16:54,4:51:00 PM,ROSWELL RD NE @ MARYEANNA DR,33.900208,-84.380478
95,905744,306,4/7/2018 20:59,8:53:00 PM,ROSWELL RD NE @ MARYEANNA DR,33.900208,-84.380478
96,905744,126,4/7/2018 5:54,5:51:00 AM,ROSWELL RD NE @ MARYEANNA DR,33.900208,-84.380478
97,905744,246,4/7/2018 13:56,1:51:00 PM,ROSWELL RD NE @ MARYEANNA DR,33.900208,-84.380478
98,905744,246,4/7/2018 15:56,3:51:00 PM,ROSWELL RD NE @ MARYEANNA DR,33.900208,-84.380478
99,905744,366,4/7/2018 15:18,3:11:00 PM,ROSWELL RD NE @ MARYEANNA DR,33.900208,-84.380478
100,905744,6,4/7/2018 11:32,11:31:00 AM,ROSWELL RD NE @ MARYEANNA DR,33.900208,-84.380478
101,905744,366,4/8/2018 1:00,12:53:00 AM,ROSWELL RD NE @ MARYEANNA DR,33.900208,-84.380478
102,905744,246,4/7/2018 23:38,11:33:00 PM,ROSWELL RD NE @ MARYEANNA DR,33.900208,-84.380478
103,905746,33,4/7/2018 6:37,6:36:00 AM,ROSWELL RD NE@MYSTIC PL NE,33.883138,-84.380128
104,905746,93,4/7/2018 8:38,8:36:00 AM,ROSWELL RD NE@MYSTIC PL NE,33.883138,-84.380128
105,905746,153,4/7/2018 16:39,4:36:00 PM,ROSWELL RD NE@MYSTIC PL NE,33.883138,-84.380128
106,905746,-87,4/7/2018 18:35,6:36:00 PM,ROSWELL RD NE@MYSTIC PL NE,33.883138,-84.380128
107,905746,93,4/7/2018 6:58,6:56:00 AM,ROSWELL RD NE@MYSTIC PL NE,33.883138,-84.380128
108,905746,153,4/7/2018 8:59,8:56:00 AM,ROSWELL RD NE@MYSTIC PL NE,33.883138,-84.380128
109,905746,213,4/7/2018 13:00,12:56:00 PM,ROSWELL RD NE@MYSTIC PL NE,33.883138,-84.380128
110,905746,453,4/7/2018 15:04,2:56:00 PM,ROSWELL RD NE@MYSTIC PL NE,33.883138,-84.380128
111,905746,93,4/7/2018 5:58,5:56:00 AM,ROSWELL RD NE@MYSTIC PL NE,33.883138,-84.380128
112,905746,273,4/7/2018 16:01,3:56:00 PM,ROSWELL RD NE@MYSTIC PL NE,33.883138,-84.380128
113,905746,-27,4/7/2018 19:56,7:56:00 PM,ROSWELL RD NE@MYSTIC PL NE,33.883138,-84.380128
114,905746,-27,4/7/2018 7:16,7:16:00 AM,ROSWELL RD NE@MYSTIC PL NE,33.883138,-84.380128
115,905746,93,4/7/2018 9:18,9:16:00 AM,ROSWELL RD NE@MYSTIC PL NE,33.883138,-84.380128
116,905746,273,4/7/2018 15:21,3:16:00 PM,ROSWELL RD NE@MYSTIC PL NE,33.883138,-84.380128
117,905746,213,4/7/2018 17:20,5:16:00 PM,ROSWELL RD NE@MYSTIC PL NE,33.883138,-84.380128
118,905746,93,4/7/2018 19:18,7:16:00 PM,ROSWELL RD NE@MYSTIC PL NE,33.883138,-84.380128
119,905746,153,4/7/2018 21:21,9:18:00 PM,ROSWELL RD NE@MYSTIC PL NE,33.883138,-84.380128
120,905746,213,4/7/2018 5:40,5:36:00 AM,ROSWELL RD NE@MYSTIC PL NE,33.883138,-84.380128
121,905746,-27,4/7/2018 9:36,9:36:00 AM,ROSWELL RD NE@MYSTIC PL NE,33.883138,-84.380128
122,905746,33,4/7/2018 17:37,5:36:00 PM,ROSWELL RD NE@MYSTIC PL NE,33.883138,-84.380128
123,905746,153,4/7/2018 6:19,6:16:00 AM,ROSWELL RD NE@MYSTIC PL NE,33.883138,-84.380128
124,905746,213,4/7/2018 10:20,10:16:00 AM,ROSWELL RD NE@MYSTIC PL NE,33.883138,-84.380128
125,905746,333,4/7/2018 14:22,2:16:00 PM,ROSWELL RD NE@MYSTIC PL NE,33.883138,-84.380128
126,905746,333,4/7/2018 16:22,4:16:00 PM,ROSWELL RD NE@MYSTIC PL NE,33.883138,-84.380128
127,905746,153,4/7/2018 18:19,6:16:00 PM,ROSWELL RD NE@MYSTIC PL NE,33.883138,-84.380128
128,905746,33,4/7/2018 20:17,8:16:00 PM,ROSWELL RD NE@MYSTIC PL NE,33.883138,-84.380128
129,905928,32,4/7/2018 6:45,6:44:00 AM,PIEDMONT RD NE @ HABERSHAM RD NE,33.853317,-84.381663
130,905928,92,4/7/2018 8:46,8:44:00 AM,PIEDMONT RD NE @ HABERSHAM RD NE,33.853317,-84.381663
131,905928,152,4/7/2018 14:47,2:44:00 PM,PIEDMONT RD NE @ HABERSHAM RD NE,33.853317,-84.381663
132,905928,392,4/7/2018 16:51,4:44:00 PM,PIEDMONT RD NE @ HABERSHAM RD NE,33.853317,-84.381663
133,905928,-388,4/8/2018 0:00,12:06:00 AM,PIEDMONT RD NE @ HABERSHAM RD NE,33.853317,-84.381663
134,905928,152,4/7/2018 9:07,9:04:00 AM,PIEDMONT RD NE @ HABERSHAM RD NE,33.853317,-84.381663
135,905928,92,4/7/2018 11:06,11:04:00 AM,PIEDMONT RD NE @ HABERSHAM RD NE,33.853317,-84.381663
136,905928,332,4/7/2018 13:10,1:04:00 PM,PIEDMONT RD NE @ HABERSHAM RD NE,33.853317,-84.381663
137,905928,812,4/7/2018 15:18,3:04:00 PM,PIEDMONT RD NE @ HABERSHAM RD NE,33.853317,-84.381663
138,905928,92,4/7/2018 17:06,5:04:00 PM,PIEDMONT RD NE @ HABERSHAM RD NE,33.853317,-84.381663
139,905928,152,4/7/2018 21:09,9:06:00 PM,PIEDMONT RD NE @ HABERSHAM RD NE,33.853317,-84.381663
140,905928,332,4/7/2018 14:10,2:04:00 PM,PIEDMONT RD NE @ HABERSHAM RD NE,33.853317,-84.381663
141,905928,392,4/7/2018 16:11,4:04:00 PM,PIEDMONT RD NE @ HABERSHAM RD NE,33.853317,-84.381663
142,905928,92,4/7/2018 18:06,6:04:00 PM,PIEDMONT RD NE @ HABERSHAM RD NE,33.853317,-84.381663
143,905928,32,4/7/2018 20:05,8:04:00 PM,PIEDMONT RD NE @ HABERSHAM RD NE,33.853317,-84.381663
144,905928,-88,4/7/2018 7:23,7:24:00 AM,PIEDMONT RD NE @ HABERSHAM RD NE,33.853317,-84.381663
145,905928,692,4/7/2018 13:36,1:24:00 PM,PIEDMONT RD NE @ HABERSHAM RD NE,33.853317,-84.381663
146,905928,452,4/7/2018 15:32,3:24:00 PM,PIEDMONT RD NE @ HABERSHAM RD NE,33.853317,-84.381663
147,905928,512,4/7/2018 17:33,5:24:00 PM,PIEDMONT RD NE @ HABERSHAM RD NE,33.853317,-84.381663
148,905928,152,4/7/2018 21:29,9:26:00 PM,PIEDMONT RD NE @ HABERSHAM RD NE,33.853317,-84.381663
149,905928,92,4/7/2018 11:46,11:44:00 AM,PIEDMONT RD NE @ HABERSHAM RD NE,33.853317,-84.381663
150,905928,92,4/7/2018 15:46,3:44:00 PM,PIEDMONT RD NE @ HABERSHAM RD NE,33.853317,-84.381663
151,905928,152,4/7/2018 17:47,5:44:00 PM,PIEDMONT RD NE @ HABERSHAM RD NE,33.853317,-84.381663
152,905928,92,4/7/2018 19:46,7:44:00 PM,PIEDMONT RD NE @ HABERSHAM RD NE,33.853317,-84.381663
153,905928,-28,4/7/2018 21:46,9:46:00 PM,PIEDMONT RD NE @ HABERSHAM RD NE,33.853317,-84.381663
154,905928,152,4/7/2018 8:27,8:24:00 AM,PIEDMONT RD NE @ HABERSHAM RD NE,33.853317,-84.381663
155,905928,572,4/7/2018 14:34,2:24:00 PM,PIEDMONT RD NE @ HABERSHAM RD NE,33.853317,-84.381663
156,905928,212,4/7/2018 20:28,8:24:00 PM,PIEDMONT RD NE @ HABERSHAM RD NE,33.853317,-84.381663
157,905928,92,4/7/2018 22:08,10:06:00 PM,PIEDMONT RD NE @ HABERSHAM RD NE,33.853317,-84.381663
158,905928,152,4/7/2018 23:49,11:46:00 PM,PIEDMONT RD NE @ HABERSHAM RD NE,33.853317,-84.381663
159,905526,-60,4/7/2018 6:47,6:48:00 AM,PIEDMONT RD NE @ PEACHTREE RD NE,33.844399,-84.371807
160,905526,0,4/7/2018 8:48,8:48:00 AM,PIEDMONT RD NE @ PEACHTREE RD NE,33.844399,-84.371807
161,905526,180,4/7/2018 14:51,2:48:00 PM,PIEDMONT RD NE @ PEACHTREE RD NE,33.844399,-84.371807
162,905526,480,4/7/2018 16:56,4:48:00 PM,PIEDMONT RD NE @ PEACHTREE RD NE,33.844399,-84.371807
163,905526,0,4/7/2018 18:48,6:48:00 PM,PIEDMONT RD NE @ PEACHTREE RD NE,33.844399,-84.371807
164,905526,120,4/7/2018 9:10,9:08:00 AM,PIEDMONT RD NE @ PEACHTREE RD NE,33.844399,-84.371807
165,905526,60,4/7/2018 11:09,11:08:00 AM,PIEDMONT RD NE @ PEACHTREE RD NE,33.844399,-84.371807
166,905526,300,4/7/2018 13:13,1:08:00 PM,PIEDMONT RD NE @ PEACHTREE RD NE,33.844399,-84.371807
167,905526,960,4/7/2018 15:24,3:08:00 PM,PIEDMONT RD NE @ PEACHTREE RD NE,33.844399,-84.371807
168,905526,0,4/7/2018 6:08,6:08:00 AM,PIEDMONT RD NE @ PEACHTREE RD NE,33.844399,-84.371807
169,905526,-60,4/7/2018 10:07,10:08:00 AM,PIEDMONT RD NE @ PEACHTREE RD NE,33.844399,-84.371807
170,905526,420,4/7/2018 14:15,2:08:00 PM,PIEDMONT RD NE @ PEACHTREE RD NE,33.844399,-84.371807
171,905526,480,4/7/2018 16:16,4:08:00 PM,PIEDMONT RD NE @ PEACHTREE RD NE,33.844399,-84.371807
172,905526,120,4/7/2018 18:10,6:08:00 PM,PIEDMONT RD NE @ PEACHTREE RD NE,33.844399,-84.371807
173,905526,-60,4/7/2018 7:27,7:28:00 AM,PIEDMONT RD NE @ PEACHTREE RD NE,33.844399,-84.371807
174,905526,120,4/7/2018 9:30,9:28:00 AM,PIEDMONT RD NE @ PEACHTREE RD NE,33.844399,-84.371807
175,905526,540,4/7/2018 15:37,3:28:00 PM,PIEDMONT RD NE @ PEACHTREE RD NE,33.844399,-84.371807
176,905526,600,4/7/2018 17:38,5:28:00 PM,PIEDMONT RD NE @ PEACHTREE RD NE,33.844399,-84.371807
177,905526,180,4/7/2018 21:33,9:30:00 PM,PIEDMONT RD NE @ PEACHTREE RD NE,33.844399,-84.371807
178,905526,120,4/7/2018 15:50,3:48:00 PM,PIEDMONT RD NE @ PEACHTREE RD NE,33.844399,-84.371807
179,905526,-60,4/7/2018 21:49,9:50:00 PM,PIEDMONT RD NE @ PEACHTREE RD NE,33.844399,-84.371807
180,905526,60,4/8/2018 1:11,1:10:00 AM,PIEDMONT RD NE @ PEACHTREE RD NE,33.844399,-84.371807
181,905526,180,4/7/2018 10:31,10:28:00 AM,PIEDMONT RD NE @ PEACHTREE RD NE,33.844399,-84.371807
182,905526,60,4/7/2018 12:29,12:28:00 PM,PIEDMONT RD NE @ PEACHTREE RD NE,33.844399,-84.371807
183,905526,600,4/7/2018 14:38,2:28:00 PM,PIEDMONT RD NE @ PEACHTREE RD NE,33.844399,-84.371807
184,905526,120,4/7/2018 18:30,6:28:00 PM,PIEDMONT RD NE @ PEACHTREE RD NE,33.844399,-84.371807
185,900481,-94,4/7/2018 6:49,6:50:00 AM,PIEDMONT RD NE @ E PACES FERRY RD NE,33.839531,-84.369377
186,900481,86,4/7/2018 14:52,2:50:00 PM,PIEDMONT RD NE @ E PACES FERRY RD NE,33.839531,-84.369377
187,900481,26,4/7/2018 9:11,9:10:00 AM,PIEDMONT RD NE @ E PACES FERRY RD NE,33.839531,-84.369377
188,900481,326,4/7/2018 13:16,1:10:00 PM,PIEDMONT RD NE @ E PACES FERRY RD NE,33.839531,-84.369377
189,900481,926,4/7/2018 15:26,3:10:00 PM,PIEDMONT RD NE @ E PACES FERRY RD NE,33.839531,-84.369377
190,900481,386,4/7/2018 14:17,2:10:00 PM,PIEDMONT RD NE @ E PACES FERRY RD NE,33.839531,-84.369377
191,900481,446,4/7/2018 16:18,4:10:00 PM,PIEDMONT RD NE @ E PACES FERRY RD NE,33.839531,-84.369377
192,900481,112,4/7/2018 21:34,9:32:00 PM,PIEDMONT RD NE @ E PACES FERRY RD NE,33.839531,-84.369377
193,900481,112,4/7/2018 23:14,11:12:00 PM,PIEDMONT RD NE @ E PACES FERRY RD NE,33.839531,-84.369377
194,900481,-34,4/7/2018 19:50,7:50:00 PM,PIEDMONT RD NE @ E PACES FERRY RD NE,33.839531,-84.369377
195,900481,-68,4/7/2018 21:51,9:52:00 PM,PIEDMONT RD NE @ E PACES FERRY RD NE,33.839531,-84.369377
196,900481,26,4/7/2018 8:31,8:30:00 AM,PIEDMONT RD NE @ E PACES FERRY RD NE,33.839531,-84.369377
197,900481,86,4/7/2018 20:32,8:30:00 PM,PIEDMONT RD NE @ E PACES FERRY RD NE,33.839531,-84.369377
198,900481,52,4/7/2018 23:53,11:52:00 PM,PIEDMONT RD NE @ E PACES FERRY RD NE,33.839531,-84.369377
199,900482,-172,4/7/2018 6:49,6:51:00 AM,PIEDMONT RD NE @ PHARR RD NE,33.837061,-84.368146
200,900482,368,4/7/2018 16:58,4:51:00 PM,PIEDMONT RD NE @ PHARR RD NE,33.837061,-84.368146
201,900482,-313,4/8/2018 0:08,12:13:00 AM,PIEDMONT RD NE @ PHARR RD NE,33.837061,-84.368146
202,900482,-52,4/7/2018 7:11,7:11:00 AM,PIEDMONT RD NE @ PHARR RD NE,33.837061,-84.368146
203,900482,-112,4/7/2018 11:10,11:11:00 AM,PIEDMONT RD NE @ PHARR RD NE,33.837061,-84.368146
204,900482,368,4/7/2018 13:18,1:11:00 PM,PIEDMONT RD NE @ PHARR RD NE,33.837061,-84.368146
205,900482,968,4/7/2018 15:28,3:11:00 PM,PIEDMONT RD NE @ PHARR RD NE,33.837061,-84.368146
206,900482,8,4/7/2018 17:12,5:11:00 PM,PIEDMONT RD NE @ PHARR RD NE,33.837061,-84.368146
207,900482,-172,4/7/2018 6:09,6:11:00 AM,PIEDMONT RD NE @ PHARR RD NE,33.837061,-84.368146
208,900482,-172,4/7/2018 10:09,10:11:00 AM,PIEDMONT RD NE @ PHARR RD NE,33.837061,-84.368146
209,900482,428,4/7/2018 14:19,2:11:00 PM,PIEDMONT RD NE @ PHARR RD NE,33.837061,-84.368146
210,900482,428,4/7/2018 16:19,4:11:00 PM,PIEDMONT RD NE @ PHARR RD NE,33.837061,-84.368146
211,900482,8,4/7/2018 18:12,6:11:00 PM,PIEDMONT RD NE @ PHARR RD NE,33.837061,-84.368146
212,900482,-172,4/7/2018 7:29,7:31:00 AM,PIEDMONT RD NE @ PHARR RD NE,33.837061,-84.368146
213,900482,248,4/7/2018 11:36,11:31:00 AM,PIEDMONT RD NE @ PHARR RD NE,33.837061,-84.368146
214,900482,608,4/7/2018 13:42,1:31:00 PM,PIEDMONT RD NE @ PHARR RD NE,33.837061,-84.368146
215,900482,548,4/7/2018 15:41,3:31:00 PM,PIEDMONT RD NE @ PHARR RD NE,33.837061,-84.368146
216,900482,548,4/7/2018 17:41,5:31:00 PM,PIEDMONT RD NE @ PHARR RD NE,33.837061,-84.368146
217,900482,167,4/7/2018 23:16,11:13:00 PM,PIEDMONT RD NE @ PHARR RD NE,33.837061,-84.368146
218,900482,-172,4/7/2018 9:49,9:51:00 AM,PIEDMONT RD NE @ PHARR RD NE,33.837061,-84.368146
219,900482,128,4/7/2018 17:54,5:51:00 PM,PIEDMONT RD NE @ PHARR RD NE,33.837061,-84.368146
220,900482,8,4/7/2018 8:32,8:31:00 AM,PIEDMONT RD NE @ PHARR RD NE,33.837061,-84.368146
221,900482,548,4/7/2018 16:41,4:31:00 PM,PIEDMONT RD NE @ PHARR RD NE,33.837061,-84.368146
222,900482,-52,4/7/2018 18:31,6:31:00 PM,PIEDMONT RD NE @ PHARR RD NE,33.837061,-84.368146
223,900482,-13,4/7/2018 22:13,10:13:00 PM,PIEDMONT RD NE @ PHARR RD NE,33.837061,-84.368146
224,902145,-480,4/7/2018 6:52,7:00:00 AM,LINDBERGH CENTER STATION - NORTH LOOP/MOROSGO DR,33.823072,-84.36995
225,902145,180,4/7/2018 9:18,9:15:00 AM,LINDBERGH CENTER STATION - NORTH LOOP/MOROSGO DR,33.823072,-84.36995
226,902145,120,4/7/2018 11:17,11:15:00 AM,LINDBERGH CENTER STATION - NORTH LOOP/MOROSGO DR,33.823072,-84.36995
227,902145,-360,4/7/2018 12:54,1:00:00 PM,LINDBERGH CENTER STATION - NORTH LOOP/MOROSGO DR,33.823072,-84.36995
228,902145,60,4/7/2018 15:16,3:15:00 PM,LINDBERGH CENTER STATION - NORTH LOOP/MOROSGO DR,33.823072,-84.36995
229,902145,0,4/7/2018 17:15,5:15:00 PM,LINDBERGH CENTER STATION - NORTH LOOP/MOROSGO DR,33.823072,-84.36995
230,902145,-300,4/7/2018 22:35,10:40:00 PM,LINDBERGH CENTER STATION - NORTH LOOP/MOROSGO DR,33.823072,-84.36995
231,902145,-480,4/8/2018 0:12,12:20:00 AM,LINDBERGH CENTER STATION - NORTH LOOP/MOROSGO DR,33.823072,-84.36995
232,902145,-360,4/7/2018 7:14,7:20:00 AM,LINDBERGH CENTER STATION - NORTH LOOP/MOROSGO DR,33.823072,-84.36995
233,902145,0,4/7/2018 7:35,7:35:00 AM,LINDBERGH CENTER STATION - NORTH LOOP/MOROSGO DR,33.823072,-84.36995
234,902145,-60,4/7/2018 9:19,9:20:00 AM,LINDBERGH CENTER STATION - NORTH LOOP/MOROSGO DR,33.823072,-84.36995
235,902145,-360,4/7/2018 11:14,11:20:00 AM,LINDBERGH CENTER STATION - NORTH LOOP/MOROSGO DR,33.823072,-84.36995
236,902145,120,4/7/2018 13:37,1:35:00 PM,LINDBERGH CENTER STATION - NORTH LOOP/MOROSGO DR,33.823072,-84.36995
237,902145,120,4/7/2018 15:37,3:35:00 PM,LINDBERGH CENTER STATION - NORTH LOOP/MOROSGO DR,33.823072,-84.36995
238,902145,420,4/7/2018 17:42,5:35:00 PM,LINDBERGH CENTER STATION - NORTH LOOP/MOROSGO DR,33.823072,-84.36995
239,902145,180,4/7/2018 19:38,7:35:00 PM,LINDBERGH CENTER STATION - NORTH LOOP/MOROSGO DR,33.823072,-84.36995
240,902145,240,4/7/2018 6:39,6:35:00 AM,LINDBERGH CENTER STATION - NORTH LOOP/MOROSGO DR,33.823072,-84.36995
241,902145,-480,4/7/2018 10:12,10:20:00 AM,LINDBERGH CENTER STATION - NORTH LOOP/MOROSGO DR,33.823072,-84.36995
242,902145,120,4/7/2018 12:37,12:35:00 PM,LINDBERGH CENTER STATION - NORTH LOOP/MOROSGO DR,33.823072,-84.36995
243,902145,180,4/7/2018 14:38,2:35:00 PM,LINDBERGH CENTER STATION - NORTH LOOP/MOROSGO DR,33.823072,-84.36995
244,902145,120,4/7/2018 16:37,4:35:00 PM,LINDBERGH CENTER STATION - NORTH LOOP/MOROSGO DR,33.823072,-84.36995
245,902145,-240,4/7/2018 18:16,6:20:00 PM,LINDBERGH CENTER STATION - NORTH LOOP/MOROSGO DR,33.823072,-84.36995
246,902145,-420,4/7/2018 20:13,8:20:00 PM,LINDBERGH CENTER STATION - NORTH LOOP/MOROSGO DR,33.823072,-84.36995
247,902145,180,4/7/2018 9:58,9:55:00 AM,LINDBERGH CENTER STATION - NORTH LOOP/MOROSGO DR,33.823072,-84.36995
248,902145,60,4/7/2018 11:56,11:55:00 AM,LINDBERGH CENTER STATION - NORTH LOOP/MOROSGO DR,33.823072,-84.36995
249,902145,0,4/7/2018 13:55,1:55:00 PM,LINDBERGH CENTER STATION - NORTH LOOP/MOROSGO DR,33.823072,-84.36995
250,902145,300,4/7/2018 16:00,3:55:00 PM,LINDBERGH CENTER STATION - NORTH LOOP/MOROSGO DR,33.823072,-84.36995
251,902145,120,4/7/2018 17:57,5:55:00 PM,LINDBERGH CENTER STATION - NORTH LOOP/MOROSGO DR,33.823072,-84.36995
252,902145,-300,4/7/2018 19:35,7:40:00 PM,LINDBERGH CENTER STATION - NORTH LOOP/MOROSGO DR,33.823072,-84.36995
253,902145,60,4/7/2018 21:56,9:55:00 PM,LINDBERGH CENTER STATION - NORTH LOOP/MOROSGO DR,33.823072,-84.36995
254,902145,-60,4/7/2018 23:19,11:20:00 PM,LINDBERGH CENTER STATION - NORTH LOOP/MOROSGO DR,33.823072,-84.36995
255,902145,60,4/8/2018 1:16,1:15:00 AM,LINDBERGH CENTER STATION - NORTH LOOP/MOROSGO DR,33.823072,-84.36995
256,902145,180,4/7/2018 6:18,6:15:00 AM,LINDBERGH CENTER STATION - NORTH LOOP/MOROSGO DR,33.823072,-84.36995
257,902145,-540,4/7/2018 9:51,10:00:00 AM,LINDBERGH CENTER STATION - NORTH LOOP/MOROSGO DR,33.823072,-84.36995
258,902145,0,4/7/2018 12:15,12:15:00 PM,LINDBERGH CENTER STATION - NORTH LOOP/MOROSGO DR,33.823072,-84.36995
259,902145,60,4/7/2018 14:16,2:15:00 PM,LINDBERGH CENTER STATION - NORTH LOOP/MOROSGO DR,33.823072,-84.36995
260,902145,-240,4/7/2018 15:56,4:00:00 PM,LINDBERGH CENTER STATION - NORTH LOOP/MOROSGO DR,33.823072,-84.36995
261,902145,0,4/7/2018 16:15,4:15:00 PM,LINDBERGH CENTER STATION - NORTH LOOP/MOROSGO DR,33.823072,-84.36995
262,902145,0,4/7/2018 18:15,6:15:00 PM,LINDBERGH CENTER STATION - NORTH LOOP/MOROSGO DR,33.823072,-84.36995
263,902145,-360,4/7/2018 19:54,8:00:00 PM,LINDBERGH CENTER STATION - NORTH LOOP/MOROSGO DR,33.823072,-84.36995
264,902145,600,4/8/2018 1:45,1:35:00 AM,LINDBERGH CENTER STATION - NORTH LOOP/MOROSGO DR,33.823072,-84.36995
265,902145,-420,4/7/2018 6:33,6:40:00 AM,LINDBERGH CENTER STATION - NORTH LOOP/MOROSGO DR,33.823072,-84.36995
266,902145,-360,4/7/2018 8:34,8:40:00 AM,LINDBERGH CENTER STATION - NORTH LOOP/MOROSGO DR,33.823072,-84.36995
267,902145,60,4/7/2018 10:56,10:55:00 AM,LINDBERGH CENTER STATION - NORTH LOOP/MOROSGO DR,33.823072,-84.36995
268,902145,-300,4/7/2018 12:35,12:40:00 PM,LINDBERGH CENTER STATION - NORTH LOOP/MOROSGO DR,33.823072,-84.36995
269,902145,0,4/7/2018 12:55,12:55:00 PM,LINDBERGH CENTER STATION - NORTH LOOP/MOROSGO DR,33.823072,-84.36995
270,902145,60,4/7/2018 14:56,2:55:00 PM,LINDBERGH CENTER STATION - NORTH LOOP/MOROSGO DR,33.823072,-84.36995
271,902145,60,4/7/2018 16:56,4:55:00 PM,LINDBERGH CENTER STATION - NORTH LOOP/MOROSGO DR,33.823072,-84.36995
272,902145,-360,4/7/2018 18:34,6:40:00 PM,LINDBERGH CENTER STATION - NORTH LOOP/MOROSGO DR,33.823072,-84.36995
273,902145,60,4/7/2018 20:56,8:55:00 PM,LINDBERGH CENTER STATION - NORTH LOOP/MOROSGO DR,33.823072,-84.36995
274,902145,60,4/7/2018 22:36,10:35:00 PM,LINDBERGH CENTER STATION - NORTH LOOP/MOROSGO DR,33.823072,-84.36995
275,902145,120,4/8/2018 0:17,12:15:00 AM,LINDBERGH CENTER STATION - NORTH LOOP/MOROSGO DR,33.823072,-84.36995
276,900480,-89,4/7/2018 7:21,7:22:00 AM,PIEDMONT RD NE @ BURKE RD NE,33.835906,-84.367927
277,900480,-269,4/7/2018 7:38,7:42:00 AM,PIEDMONT RD NE @ BURKE RD NE,33.835906,-84.367927
278,900480,-149,4/7/2018 11:40,11:42:00 AM,PIEDMONT RD NE @ BURKE RD NE,33.835906,-84.367927
279,900480,-149,4/7/2018 8:40,8:42:00 AM,PIEDMONT RD NE @ BURKE RD NE,33.835906,-84.367927
280,900480,-89,4/7/2018 12:41,12:42:00 PM,PIEDMONT RD NE @ BURKE RD NE,33.835906,-84.367927
281,900480,-149,4/7/2018 8:00,8:02:00 AM,PIEDMONT RD NE @ BURKE RD NE,33.835906,-84.367927
282,900480,-89,4/7/2018 14:01,2:02:00 PM,PIEDMONT RD NE @ BURKE RD NE,33.835906,-84.367927
283,900480,211,4/7/2018 16:06,4:02:00 PM,PIEDMONT RD NE @ BURKE RD NE,33.835906,-84.367927
284,900480,-89,4/7/2018 18:01,6:02:00 PM,PIEDMONT RD NE @ BURKE RD NE,33.835906,-84.367927
285,900480,-29,4/7/2018 7:02,7:02:00 AM,PIEDMONT RD NE @ BURKE RD NE,33.835906,-84.367927
286,900480,-89,4/7/2018 9:01,9:02:00 AM,PIEDMONT RD NE @ BURKE RD NE,33.835906,-84.367927
287,900480,-149,4/7/2018 11:00,11:02:00 AM,PIEDMONT RD NE @ BURKE RD NE,33.835906,-84.367927
288,901702,-135,4/7/2018 7:21,7:23:00 AM,PIEDMONT RD NE @ PEACHTREE DR NE,33.837499,-84.368222
289,901702,-15,4/7/2018 11:23,11:23:00 AM,PIEDMONT RD NE @ PEACHTREE DR NE,33.837499,-84.368222
290,901702,-15,4/7/2018 13:23,1:23:00 PM,PIEDMONT RD NE @ PEACHTREE DR NE,33.837499,-84.368222
291,901702,-75,4/7/2018 15:22,3:23:00 PM,PIEDMONT RD NE @ PEACHTREE DR NE,33.837499,-84.368222
292,901702,-255,4/7/2018 7:39,7:43:00 AM,PIEDMONT RD NE @ PEACHTREE DR NE,33.837499,-84.368222
293,901702,-135,4/7/2018 11:41,11:43:00 AM,PIEDMONT RD NE @ PEACHTREE DR NE,33.837499,-84.368222
294,901702,-135,4/7/2018 13:41,1:43:00 PM,PIEDMONT RD NE @ PEACHTREE DR NE,33.837499,-84.368222
295,901702,-15,4/7/2018 15:43,3:43:00 PM,PIEDMONT RD NE @ PEACHTREE DR NE,33.837499,-84.368222
296,901702,-15,4/7/2018 19:43,7:43:00 PM,PIEDMONT RD NE @ PEACHTREE DR NE,33.837499,-84.368222
297,901702,-135,4/7/2018 6:41,6:43:00 AM,PIEDMONT RD NE @ PEACHTREE DR NE,33.837499,-84.368222
298,901702,-135,4/7/2018 8:41,8:43:00 AM,PIEDMONT RD NE @ PEACHTREE DR NE,33.837499,-84.368222
299,901702,-75,4/7/2018 10:42,10:43:00 AM,PIEDMONT RD NE @ PEACHTREE DR NE,33.837499,-84.368222
300,901702,-135,4/7/2018 20:41,8:43:00 PM,PIEDMONT RD NE @ PEACHTREE DR NE,33.837499,-84.368222
301,901702,-135,4/7/2018 8:01,8:03:00 AM,PIEDMONT RD NE @ PEACHTREE DR NE,33.837499,-84.368222
302,901702,165,4/7/2018 16:06,4:03:00 PM,PIEDMONT RD NE @ PEACHTREE DR NE,33.837499,-84.368222
303,901702,-51,4/7/2018 22:01,10:01:00 PM,PIEDMONT RD NE @ PEACHTREE DR NE,33.837499,-84.368222
304,901702,-51,4/8/2018 1:21,1:21:00 AM,PIEDMONT RD NE @ PEACHTREE DR NE,33.837499,-84.368222
305,901702,-51,4/8/2018 1:21,1:21:00 AM,PIEDMONT RD NE @ PEACHTREE DR NE,33.837499,-84.368222
306,901702,-75,4/7/2018 8:22,8:23:00 AM,PIEDMONT RD NE @ PEACHTREE DR NE,33.837499,-84.368222
307,901702,-135,4/7/2018 14:21,2:23:00 PM,PIEDMONT RD NE @ PEACHTREE DR NE,33.837499,-84.368222
308,901702,-75,4/7/2018 16:22,4:23:00 PM,PIEDMONT RD NE @ PEACHTREE DR NE,33.837499,-84.368222
309,901702,369,4/8/2018 1:48,1:41:00 AM,PIEDMONT RD NE @ PEACHTREE DR NE,33.837499,-84.368222
310,901702,45,4/7/2018 7:04,7:03:00 AM,PIEDMONT RD NE @ PEACHTREE DR NE,33.837499,-84.368222
311,901702,-135,4/7/2018 9:01,9:03:00 AM,PIEDMONT RD NE @ PEACHTREE DR NE,33.837499,-84.368222
312,901702,-195,4/7/2018 13:00,1:03:00 PM,PIEDMONT RD NE @ PEACHTREE DR NE,33.837499,-84.368222
313,901702,-15,4/7/2018 21:03,9:03:00 PM,PIEDMONT RD NE @ PEACHTREE DR NE,33.837499,-84.368222
314,905429,0,4/7/2018 7:27,7:27:00 AM,PIEDMONT RD NE @ PEACHTREE RD NE,33.844583,-84.371608
315,905429,-60,4/7/2018 15:26,3:27:00 PM,PIEDMONT RD NE @ PEACHTREE RD NE,33.844583,-84.371608
316,905429,-180,4/7/2018 19:24,7:27:00 PM,PIEDMONT RD NE @ PEACHTREE RD NE,33.844583,-84.371608
317,905429,-60,4/7/2018 21:24,9:25:00 PM,PIEDMONT RD NE @ PEACHTREE RD NE,33.844583,-84.371608
318,905429,120,4/8/2018 0:43,12:45:00 AM,PIEDMONT RD NE @ PEACHTREE RD NE,33.844583,-84.371608
319,905429,60,4/7/2018 9:48,9:47:00 AM,PIEDMONT RD NE @ PEACHTREE RD NE,33.844583,-84.371608
320,905429,60,4/7/2018 11:48,11:47:00 AM,PIEDMONT RD NE @ PEACHTREE RD NE,33.844583,-84.371608
321,905429,60,4/7/2018 15:48,3:47:00 PM,PIEDMONT RD NE @ PEACHTREE RD NE,33.844583,-84.371608
322,905429,60,4/7/2018 17:48,5:47:00 PM,PIEDMONT RD NE @ PEACHTREE RD NE,33.844583,-84.371608
323,905429,180,4/7/2018 6:50,6:47:00 AM,PIEDMONT RD NE @ PEACHTREE RD NE,33.844583,-84.371608
324,905429,60,4/7/2018 8:48,8:47:00 AM,PIEDMONT RD NE @ PEACHTREE RD NE,33.844583,-84.371608
325,905429,0,4/7/2018 10:47,10:47:00 AM,PIEDMONT RD NE @ PEACHTREE RD NE,33.844583,-84.371608
326,905429,0,4/7/2018 12:47,12:47:00 PM,PIEDMONT RD NE @ PEACHTREE RD NE,33.844583,-84.371608
327,905429,0,4/7/2018 14:47,2:47:00 PM,PIEDMONT RD NE @ PEACHTREE RD NE,33.844583,-84.371608
328,905429,0,4/7/2018 16:47,4:47:00 PM,PIEDMONT RD NE @ PEACHTREE RD NE,33.844583,-84.371608
329,905429,-60,4/7/2018 20:46,8:47:00 PM,PIEDMONT RD NE @ PEACHTREE RD NE,33.844583,-84.371608
330,905429,120,4/7/2018 12:09,12:07:00 PM,PIEDMONT RD NE @ PEACHTREE RD NE,33.844583,-84.371608
331,905429,0,4/7/2018 18:07,6:07:00 PM,PIEDMONT RD NE @ PEACHTREE RD NE,33.844583,-84.371608
332,905429,-60,4/7/2018 22:04,10:05:00 PM,PIEDMONT RD NE @ PEACHTREE RD NE,33.844583,-84.371608
333,905429,-60,4/7/2018 6:26,6:27:00 AM,PIEDMONT RD NE @ PEACHTREE RD NE,33.844583,-84.371608
334,905429,-60,4/7/2018 8:26,8:27:00 AM,PIEDMONT RD NE @ PEACHTREE RD NE,33.844583,-84.371608
335,905429,-60,4/7/2018 12:26,12:27:00 PM,PIEDMONT RD NE @ PEACHTREE RD NE,33.844583,-84.371608
336,905429,0,4/7/2018 16:27,4:27:00 PM,PIEDMONT RD NE @ PEACHTREE RD NE,33.844583,-84.371608
337,905429,0,4/7/2018 18:27,6:27:00 PM,PIEDMONT RD NE @ PEACHTREE RD NE,33.844583,-84.371608
338,905429,0,4/7/2018 20:27,8:27:00 PM,PIEDMONT RD NE @ PEACHTREE RD NE,33.844583,-84.371608
339,905429,0,4/7/2018 22:25,10:25:00 PM,PIEDMONT RD NE @ PEACHTREE RD NE,33.844583,-84.371608
340,905429,0,4/8/2018 0:05,12:05:00 AM,PIEDMONT RD NE @ PEACHTREE RD NE,33.844583,-84.371608
341,905429,300,4/8/2018 1:50,1:45:00 AM,PIEDMONT RD NE @ PEACHTREE RD NE,33.844583,-84.371608
342,905429,60,4/7/2018 7:08,7:07:00 AM,PIEDMONT RD NE @ PEACHTREE RD NE,33.844583,-84.371608
343,905429,60,4/7/2018 9:08,9:07:00 AM,PIEDMONT RD NE @ PEACHTREE RD NE,33.844583,-84.371608
344,905429,60,4/7/2018 11:08,11:07:00 AM,PIEDMONT RD NE @ PEACHTREE RD NE,33.844583,-84.371608
345,905429,60,4/7/2018 15:08,3:07:00 PM,PIEDMONT RD NE @ PEACHTREE RD NE,33.844583,-84.371608
346,905429,60,4/7/2018 17:08,5:07:00 PM,PIEDMONT RD NE @ PEACHTREE RD NE,33.844583,-84.371608
347,905429,0,4/7/2018 22:45,10:45:00 PM,PIEDMONT RD NE @ PEACHTREE RD NE,33.844583,-84.371608
348,905429,60,4/8/2018 0:26,12:25:00 AM,PIEDMONT RD NE @ PEACHTREE RD NE,33.844583,-84.371608
349,905289,-26,4/7/2018 7:27,7:27:00 AM,PIEDMONT RD NE @ TOWER PLACE DR,33.846081,-84.372483
350,905289,-26,4/7/2018 7:47,7:47:00 AM,PIEDMONT RD NE @ TOWER PLACE DR,33.846081,-84.372483
351,905289,94,4/7/2018 9:49,9:47:00 AM,PIEDMONT RD NE @ TOWER PLACE DR,33.846081,-84.372483
352,905289,154,4/7/2018 11:50,11:47:00 AM,PIEDMONT RD NE @ TOWER PLACE DR,33.846081,-84.372483
353,905289,34,4/7/2018 13:48,1:47:00 PM,PIEDMONT RD NE @ TOWER PLACE DR,33.846081,-84.372483
354,905289,94,4/7/2018 15:49,3:47:00 PM,PIEDMONT RD NE @ TOWER PLACE DR,33.846081,-84.372483
355,905289,94,4/7/2018 17:49,5:47:00 PM,PIEDMONT RD NE @ TOWER PLACE DR,33.846081,-84.372483
356,905289,-26,4/7/2018 19:47,7:47:00 PM,PIEDMONT RD NE @ TOWER PLACE DR,33.846081,-84.372483
357,905289,94,4/7/2018 8:49,8:47:00 AM,PIEDMONT RD NE @ TOWER PLACE DR,33.846081,-84.372483
358,905289,-26,4/7/2018 10:47,10:47:00 AM,PIEDMONT RD NE @ TOWER PLACE DR,33.846081,-84.372483
359,905289,34,4/7/2018 12:48,12:47:00 PM,PIEDMONT RD NE @ TOWER PLACE DR,33.846081,-84.372483
360,905289,94,4/7/2018 14:49,2:47:00 PM,PIEDMONT RD NE @ TOWER PLACE DR,33.846081,-84.372483
361,905289,34,4/7/2018 16:48,4:47:00 PM,PIEDMONT RD NE @ TOWER PLACE DR,33.846081,-84.372483
362,905289,34,4/7/2018 8:08,8:07:00 AM,PIEDMONT RD NE @ TOWER PLACE DR,33.846081,-84.372483
363,905289,154,4/7/2018 10:10,10:07:00 AM,PIEDMONT RD NE @ TOWER PLACE DR,33.846081,-84.372483
364,905289,214,4/7/2018 12:11,12:07:00 PM,PIEDMONT RD NE @ TOWER PLACE DR,33.846081,-84.372483
365,905289,214,4/7/2018 14:11,2:07:00 PM,PIEDMONT RD NE @ TOWER PLACE DR,33.846081,-84.372483
366,905289,214,4/7/2018 16:11,4:07:00 PM,PIEDMONT RD NE @ TOWER PLACE DR,33.846081,-84.372483
367,905289,34,4/7/2018 18:08,6:07:00 PM,PIEDMONT RD NE @ TOWER PLACE DR,33.846081,-84.372483
368,905289,-23,4/7/2018 22:05,10:05:00 PM,PIEDMONT RD NE @ TOWER PLACE DR,33.846081,-84.372483
369,905289,97,4/7/2018 23:47,11:45:00 PM,PIEDMONT RD NE @ TOWER PLACE DR,33.846081,-84.372483
370,905289,-26,4/7/2018 8:27,8:27:00 AM,PIEDMONT RD NE @ TOWER PLACE DR,33.846081,-84.372483
371,905289,-26,4/7/2018 10:27,10:27:00 AM,PIEDMONT RD NE @ TOWER PLACE DR,33.846081,-84.372483
372,905289,-26,4/7/2018 14:27,2:27:00 PM,PIEDMONT RD NE @ TOWER PLACE DR,33.846081,-84.372483
373,905289,-26,4/7/2018 16:27,4:27:00 PM,PIEDMONT RD NE @ TOWER PLACE DR,33.846081,-84.372483
374,905289,-26,4/7/2018 18:27,6:27:00 PM,PIEDMONT RD NE @ TOWER PLACE DR,33.846081,-84.372483
375,905289,94,4/7/2018 7:09,7:07:00 AM,PIEDMONT RD NE @ TOWER PLACE DR,33.846081,-84.372483
376,905289,94,4/7/2018 9:09,9:07:00 AM,PIEDMONT RD NE @ TOWER PLACE DR,33.846081,-84.372483
377,905289,34,4/7/2018 11:08,11:07:00 AM,PIEDMONT RD NE @ TOWER PLACE DR,33.846081,-84.372483
378,905289,94,4/7/2018 13:09,1:07:00 PM,PIEDMONT RD NE @ TOWER PLACE DR,33.846081,-84.372483
379,905289,154,4/7/2018 15:10,3:07:00 PM,PIEDMONT RD NE @ TOWER PLACE DR,33.846081,-84.372483
380,905289,94,4/7/2018 17:09,5:07:00 PM,PIEDMONT RD NE @ TOWER PLACE DR,33.846081,-84.372483
381,905289,154,4/7/2018 19:10,7:07:00 PM,PIEDMONT RD NE @ TOWER PLACE DR,33.846081,-84.372483
382,905528,-78,4/7/2018 7:31,7:32:00 AM,ROSWELL RD NE @ SHELDON DR NE,33.860558,-84.380416
383,905528,-18,4/7/2018 11:32,11:32:00 AM,ROSWELL RD NE @ SHELDON DR NE,33.860558,-84.380416
384,905528,-18,4/7/2018 17:32,5:32:00 PM,ROSWELL RD NE @ SHELDON DR NE,33.860558,-84.380416
385,905528,-18,4/7/2018 7:52,7:52:00 AM,ROSWELL RD NE @ SHELDON DR NE,33.860558,-84.380416
386,905528,102,4/7/2018 9:54,9:52:00 AM,ROSWELL RD NE @ SHELDON DR NE,33.860558,-84.380416
387,905528,222,4/7/2018 11:56,11:52:00 AM,ROSWELL RD NE @ SHELDON DR NE,33.860558,-84.380416
388,905528,222,4/7/2018 15:56,3:52:00 PM,ROSWELL RD NE @ SHELDON DR NE,33.860558,-84.380416
389,905528,342,4/7/2018 14:18,2:12:00 PM,ROSWELL RD NE @ SHELDON DR NE,33.860558,-84.380416
390,905528,222,4/7/2018 15:16,3:12:00 PM,ROSWELL RD NE @ SHELDON DR NE,33.860558,-84.380416
391,905577,-152,4/7/2018 7:33,7:35:00 AM,ROSWELL RD NE @ MIDVALE DR NE,33.872971,-84.38097
392,905577,-92,4/7/2018 17:34,5:35:00 PM,ROSWELL RD NE @ MIDVALE DR NE,33.872971,-84.38097
393,905577,-32,4/7/2018 7:55,7:55:00 AM,ROSWELL RD NE @ MIDVALE DR NE,33.872971,-84.38097
394,905577,88,4/7/2018 9:57,9:55:00 AM,ROSWELL RD NE @ MIDVALE DR NE,33.872971,-84.38097
395,905577,-32,4/7/2018 10:55,10:55:00 AM,ROSWELL RD NE @ MIDVALE DR NE,33.872971,-84.38097
396,905577,148,4/7/2018 8:18,8:15:00 AM,ROSWELL RD NE @ MIDVALE DR NE,33.872971,-84.38097
397,905577,-32,4/7/2018 20:15,8:15:00 PM,ROSWELL RD NE @ MIDVALE DR NE,33.872971,-84.38097
398,905577,-32,4/7/2018 8:35,8:35:00 AM,ROSWELL RD NE @ MIDVALE DR NE,33.872971,-84.38097
399,905577,-32,4/7/2018 12:35,12:35:00 PM,ROSWELL RD NE @ MIDVALE DR NE,33.872971,-84.38097
400,905577,-152,4/7/2018 14:33,2:35:00 PM,ROSWELL RD NE @ MIDVALE DR NE,33.872971,-84.38097
401,905577,-32,4/7/2018 20:35,8:35:00 PM,ROSWELL RD NE @ MIDVALE DR NE,33.872971,-84.38097
402,905577,28,4/7/2018 7:16,7:15:00 AM,ROSWELL RD NE @ MIDVALE DR NE,33.872971,-84.38097
403,905577,88,4/7/2018 17:17,5:15:00 PM,ROSWELL RD NE @ MIDVALE DR NE,33.872971,-84.38097
404,905577,198,4/7/2018 21:18,9:14:00 PM,ROSWELL RD NE @ MIDVALE DR NE,33.872971,-84.38097
405,905627,-131,4/7/2018 7:35,7:37:00 AM,ROSWELL RD NE @ WINDSOR PKWY NE,33.879245,-84.379733
406,905627,-71,4/7/2018 17:36,5:37:00 PM,ROSWELL RD NE @ WINDSOR PKWY NE,33.879245,-84.379733
407,905627,-71,4/7/2018 7:56,7:57:00 AM,ROSWELL RD NE @ WINDSOR PKWY NE,33.879245,-84.379733
408,905627,169,4/7/2018 12:00,11:57:00 AM,ROSWELL RD NE @ WINDSOR PKWY NE,33.879245,-84.379733
409,905627,109,4/7/2018 17:59,5:57:00 PM,ROSWELL RD NE @ WINDSOR PKWY NE,33.879245,-84.379733
410,905627,-71,4/7/2018 10:56,10:57:00 AM,ROSWELL RD NE @ WINDSOR PKWY NE,33.879245,-84.379733
411,905627,49,4/7/2018 14:58,2:57:00 PM,ROSWELL RD NE @ WINDSOR PKWY NE,33.879245,-84.379733
412,905627,-71,4/7/2018 20:56,8:57:00 PM,ROSWELL RD NE @ WINDSOR PKWY NE,33.879245,-84.379733
413,905627,229,4/7/2018 12:21,12:17:00 PM,ROSWELL RD NE @ WINDSOR PKWY NE,33.879245,-84.379733
414,905627,49,4/7/2018 12:38,12:37:00 PM,ROSWELL RD NE @ WINDSOR PKWY NE,33.879245,-84.379733
415,905627,-12,4/7/2018 22:34,10:34:00 PM,ROSWELL RD NE @ WINDSOR PKWY NE,33.879245,-84.379733
416,905627,109,4/7/2018 13:19,1:17:00 PM,ROSWELL RD NE @ WINDSOR PKWY NE,33.879245,-84.379733
417,905627,109,4/7/2018 17:19,5:17:00 PM,ROSWELL RD NE @ WINDSOR PKWY NE,33.879245,-84.379733
418,905627,169,4/7/2018 17:20,5:17:00 PM,ROSWELL RD NE @ WINDSOR PKWY NE,33.879245,-84.379733
419,905629,-69,4/7/2018 7:37,7:38:00 AM,ROSWELL RD NE@MYSTIC PL NE,33.88297,-84.37994
420,905629,-69,4/7/2018 11:37,11:38:00 AM,ROSWELL RD NE@MYSTIC PL NE,33.88297,-84.37994
421,905629,-189,4/7/2018 19:35,7:38:00 PM,ROSWELL RD NE@MYSTIC PL NE,33.88297,-84.37994
422,905629,-69,4/7/2018 7:57,7:58:00 AM,ROSWELL RD NE@MYSTIC PL NE,33.88297,-84.37994
423,905629,111,4/7/2018 10:00,9:58:00 AM,ROSWELL RD NE@MYSTIC PL NE,33.88297,-84.37994
424,905629,111,4/7/2018 16:00,3:58:00 PM,ROSWELL RD NE@MYSTIC PL NE,33.88297,-84.37994
425,905629,111,4/7/2018 18:00,5:58:00 PM,ROSWELL RD NE@MYSTIC PL NE,33.88297,-84.37994
426,905629,51,4/7/2018 19:59,7:58:00 PM,ROSWELL RD NE@MYSTIC PL NE,33.88297,-84.37994
427,905629,171,4/7/2018 8:21,8:18:00 AM,ROSWELL RD NE@MYSTIC PL NE,33.88297,-84.37994
428,905629,231,4/7/2018 12:22,12:18:00 PM,ROSWELL RD NE@MYSTIC PL NE,33.88297,-84.37994
429,905629,411,4/7/2018 14:25,2:18:00 PM,ROSWELL RD NE@MYSTIC PL NE,33.88297,-84.37994
430,905629,-185,4/8/2018 1:32,1:35:00 AM,ROSWELL RD NE@MYSTIC PL NE,33.88297,-84.37994
431,905629,-9,4/7/2018 8:38,8:38:00 AM,ROSWELL RD NE@MYSTIC PL NE,33.88297,-84.37994
432,905629,51,4/7/2018 10:39,10:38:00 AM,ROSWELL RD NE@MYSTIC PL NE,33.88297,-84.37994
433,905629,51,4/7/2018 12:39,12:38:00 PM,ROSWELL RD NE@MYSTIC PL NE,33.88297,-84.37994
434,905629,-69,4/7/2018 18:37,6:38:00 PM,ROSWELL RD NE@MYSTIC PL NE,33.88297,-84.37994
435,905629,-5,4/7/2018 22:35,10:35:00 PM,ROSWELL RD NE@MYSTIC PL NE,33.88297,-84.37994
436,905629,231,4/7/2018 15:22,3:18:00 PM,ROSWELL RD NE@MYSTIC PL NE,33.88297,-84.37994
437,905629,171,4/7/2018 17:21,5:18:00 PM,ROSWELL RD NE@MYSTIC PL NE,33.88297,-84.37994
438,905629,115,4/8/2018 0:37,12:35:00 AM,ROSWELL RD NE@MYSTIC PL NE,33.88297,-84.37994
439,905871,-76,4/7/2018 7:38,7:39:00 AM,ROSWELL RD NE @ LONG ISLAND DR NE,33.887039,-84.381622
440,905871,-76,4/7/2018 11:38,11:39:00 AM,ROSWELL RD NE @ LONG ISLAND DR NE,33.887039,-84.381622
441,905871,44,4/7/2018 15:40,3:39:00 PM,ROSWELL RD NE @ LONG ISLAND DR NE,33.887039,-84.381622
442,905871,-196,4/7/2018 19:36,7:39:00 PM,ROSWELL RD NE @ LONG ISLAND DR NE,33.887039,-84.381622
443,905871,-76,4/7/2018 7:58,7:59:00 AM,ROSWELL RD NE @ LONG ISLAND DR NE,33.887039,-84.381622
444,905871,104,4/7/2018 16:01,3:59:00 PM,ROSWELL RD NE @ LONG ISLAND DR NE,33.887039,-84.381622
445,905871,104,4/7/2018 18:01,5:59:00 PM,ROSWELL RD NE @ LONG ISLAND DR NE,33.887039,-84.381622
446,905871,-16,4/7/2018 14:59,2:59:00 PM,ROSWELL RD NE @ LONG ISLAND DR NE,33.887039,-84.381622
447,905871,164,4/7/2018 8:22,8:19:00 AM,ROSWELL RD NE @ LONG ISLAND DR NE,33.887039,-84.381622
448,905871,224,4/7/2018 12:23,12:19:00 PM,ROSWELL RD NE @ LONG ISLAND DR NE,33.887039,-84.381622
449,905871,404,4/7/2018 14:26,2:19:00 PM,ROSWELL RD NE @ LONG ISLAND DR NE,33.887039,-84.381622
450,905871,-76,4/7/2018 18:18,6:19:00 PM,ROSWELL RD NE @ LONG ISLAND DR NE,33.887039,-84.381622
451,905871,-16,4/7/2018 6:39,6:39:00 AM,ROSWELL RD NE @ LONG ISLAND DR NE,33.887039,-84.381622
452,905871,-136,4/7/2018 18:37,6:39:00 PM,ROSWELL RD NE @ LONG ISLAND DR NE,33.887039,-84.381622
453,905871,-6,4/7/2018 22:36,10:36:00 PM,ROSWELL RD NE @ LONG ISLAND DR NE,33.887039,-84.381622
454,905871,-16,4/7/2018 9:19,9:19:00 AM,ROSWELL RD NE @ LONG ISLAND DR NE,33.887039,-84.381622
455,905991,-111,4/7/2018 7:41,7:42:00 AM,ROSWELL RD NE@GREEN HILL RD NE,33.90044,-84.38
456,905991,-231,4/7/2018 19:39,7:42:00 PM,ROSWELL RD NE@GREEN HILL RD NE,33.90044,-84.38
457,905991,9,4/7/2018 18:03,6:02:00 PM,ROSWELL RD NE@GREEN HILL RD NE,33.90044,-84.38
458,905991,69,4/7/2018 7:04,7:02:00 AM,ROSWELL RD NE@GREEN HILL RD NE,33.90044,-84.38
459,905991,9,4/7/2018 15:03,3:02:00 PM,ROSWELL RD NE@GREEN HILL RD NE,33.90044,-84.38
460,905991,-51,4/7/2018 19:02,7:02:00 PM,ROSWELL RD NE@GREEN HILL RD NE,33.90044,-84.38
461,905991,-171,4/7/2018 21:00,9:02:00 PM,ROSWELL RD NE@GREEN HILL RD NE,33.90044,-84.38
462,905991,369,4/7/2018 14:29,2:22:00 PM,ROSWELL RD NE@GREEN HILL RD NE,33.90044,-84.38
463,905991,39,4/8/2018 0:00,11:59:00 PM,ROSWELL RD NE@GREEN HILL RD NE,33.90044,-84.38
464,905991,-51,4/7/2018 6:42,6:42:00 AM,ROSWELL RD NE@GREEN HILL RD NE,33.90044,-84.38
465,905991,-51,4/7/2018 20:42,8:42:00 PM,ROSWELL RD NE@GREEN HILL RD NE,33.90044,-84.38
466,905991,-51,4/7/2018 9:22,9:22:00 AM,ROSWELL RD NE@GREEN HILL RD NE,33.90044,-84.38
467,905991,-51,4/7/2018 19:22,7:22:00 PM,ROSWELL RD NE@GREEN HILL RD NE,33.90044,-84.38
468,905991,159,4/7/2018 21:24,9:21:00 PM,ROSWELL RD NE@GREEN HILL RD NE,33.90044,-84.38
469,906362,2092,4/7/2018 8:25,7:50:00 AM,MT VERNON HWY@BOYLSTON DR,33.924369,-84.377367
470,906362,-8,4/7/2018 8:10,8:10:00 AM,MT VERNON HWY@BOYLSTON DR,33.924369,-84.377367
471,906362,112,4/7/2018 14:12,2:10:00 PM,MT VERNON HWY@BOYLSTON DR,33.924369,-84.377367
472,906362,292,4/7/2018 16:15,4:10:00 PM,MT VERNON HWY@BOYLSTON DR,33.924369,-84.377367
473,906362,172,4/7/2018 17:13,5:10:00 PM,MT VERNON HWY@BOYLSTON DR,33.924369,-84.377367
474,906362,4,4/7/2018 21:10,9:09:00 PM,MT VERNON HWY@BOYLSTON DR,33.924369,-84.377367
475,906362,172,4/7/2018 12:33,12:30:00 PM,MT VERNON HWY@BOYLSTON DR,33.924369,-84.377367
476,906362,352,4/7/2018 16:36,4:30:00 PM,MT VERNON HWY@BOYLSTON DR,33.924369,-84.377367
477,906362,-68,4/7/2018 20:29,8:30:00 PM,MT VERNON HWY@BOYLSTON DR,33.924369,-84.377367
478,906362,4,4/8/2018 0:06,12:05:00 AM,MT VERNON HWY@BOYLSTON DR,33.924369,-84.377367
479,906362,-8,4/7/2018 10:50,10:50:00 AM,MT VERNON HWY@BOYLSTON DR,33.924369,-84.377367
480,906362,112,4/7/2018 16:52,4:50:00 PM,MT VERNON HWY@BOYLSTON DR,33.924369,-84.377367
481,906362,-68,4/7/2018 7:29,7:30:00 AM,MT VERNON HWY@BOYLSTON DR,33.924369,-84.377367
482,906362,232,4/7/2018 17:34,5:30:00 PM,MT VERNON HWY@BOYLSTON DR,33.924369,-84.377367
483,906362,244,4/7/2018 21:32,9:27:00 PM,MT VERNON HWY@BOYLSTON DR,33.924369,-84.377367
484,906334,91,4/7/2018 8:28,8:26:00 AM,ROSWELL RD NE @ SANDY SPRINGS PL,33.920108,-84.379042
485,906334,-29,4/7/2018 12:26,12:26:00 PM,ROSWELL RD NE @ SANDY SPRINGS PL,33.920108,-84.379042
486,906334,31,4/7/2018 14:27,2:26:00 PM,ROSWELL RD NE @ SANDY SPRINGS PL,33.920108,-84.379042
487,906334,90,4/7/2018 22:10,10:08:00 PM,ROSWELL RD NE @ SANDY SPRINGS PL,33.920108,-84.379042
488,906334,151,4/7/2018 6:49,6:46:00 AM,ROSWELL RD NE @ SANDY SPRINGS PL,33.920108,-84.379042
489,906334,31,4/7/2018 10:47,10:46:00 AM,ROSWELL RD NE @ SANDY SPRINGS PL,33.920108,-84.379042
490,906334,211,4/7/2018 14:50,2:46:00 PM,ROSWELL RD NE @ SANDY SPRINGS PL,33.920108,-84.379042
491,906334,151,4/7/2018 20:51,8:48:00 PM,ROSWELL RD NE @ SANDY SPRINGS PL,33.920108,-84.379042
492,906334,211,4/7/2018 13:50,1:46:00 PM,ROSWELL RD NE @ SANDY SPRINGS PL,33.920108,-84.379042
493,906334,91,4/7/2018 7:08,7:06:00 AM,ROSWELL RD NE @ SANDY SPRINGS PL,33.920108,-84.379042
494,906334,91,4/7/2018 17:08,5:06:00 PM,ROSWELL RD NE @ SANDY SPRINGS PL,33.920108,-84.379042
495,906334,270,4/7/2018 21:13,9:08:00 PM,ROSWELL RD NE @ SANDY SPRINGS PL,33.920108,-84.379042
496,906334,331,4/7/2018 5:32,5:26:00 AM,ROSWELL RD NE @ SANDY SPRINGS PL,33.920108,-84.379042
497,906334,-29,4/7/2018 9:26,9:26:00 AM,ROSWELL RD NE @ SANDY SPRINGS PL,33.920108,-84.379042
498,906334,31,4/7/2018 11:27,11:26:00 AM,ROSWELL RD NE @ SANDY SPRINGS PL,33.920108,-84.379042
499,906334,-89,4/7/2018 15:25,3:26:00 PM,ROSWELL RD NE @ SANDY SPRINGS PL,33.920108,-84.379042
500,906334,-29,4/7/2018 17:26,5:26:00 PM,ROSWELL RD NE @ SANDY SPRINGS PL,33.920108,-84.379042
501,906334,31,4/7/2018 8:07,8:06:00 AM,ROSWELL RD NE @ SANDY SPRINGS PL,33.920108,-84.379042
502,906334,91,4/7/2018 12:08,12:06:00 PM,ROSWELL RD NE @ SANDY SPRINGS PL,33.920108,-84.379042
503,906334,31,4/7/2018 14:07,2:06:00 PM,ROSWELL RD NE @ SANDY SPRINGS PL,33.920108,-84.379042
504,906334,331,4/7/2018 16:12,4:06:00 PM,ROSWELL RD NE @ SANDY SPRINGS PL,33.920108,-84.379042
505,906334,150,4/7/2018 23:31,11:28:00 PM,ROSWELL RD NE @ SANDY SPRINGS PL,33.920108,-84.379042
506,902698,182,4/7/2018 8:33,8:29:00 AM,ROSWELL RD NE @ 5531,33.907231,-84.378718
507,902698,182,4/7/2018 14:33,2:29:00 PM,ROSWELL RD NE @ 5531,33.907231,-84.378718
508,902698,302,4/7/2018 16:35,4:29:00 PM,ROSWELL RD NE @ 5531,33.907231,-84.378718
509,902698,302,4/7/2018 12:55,12:49:00 PM,ROSWELL RD NE @ 5531,33.907231,-84.378718
510,902698,482,4/7/2018 14:58,2:49:00 PM,ROSWELL RD NE @ 5531,33.907231,-84.378718
511,902698,122,4/7/2018 16:52,4:49:00 PM,ROSWELL RD NE @ 5531,33.907231,-84.378718
512,902698,242,4/7/2018 15:54,3:49:00 PM,ROSWELL RD NE @ 5531,33.907231,-84.378718
513,902698,2,4/7/2018 17:50,5:49:00 PM,ROSWELL RD NE @ 5531,33.907231,-84.378718
514,902698,302,4/7/2018 11:15,11:09:00 AM,ROSWELL RD NE @ 5531,33.907231,-84.378718
515,902698,482,4/7/2018 13:18,1:09:00 PM,ROSWELL RD NE @ 5531,33.907231,-84.378718
516,902698,362,4/7/2018 15:16,3:09:00 PM,ROSWELL RD NE @ 5531,33.907231,-84.378718
517,902698,242,4/7/2018 17:14,5:09:00 PM,ROSWELL RD NE @ 5531,33.907231,-84.378718
518,902698,242,4/7/2018 19:14,7:09:00 PM,ROSWELL RD NE @ 5531,33.907231,-84.378718
519,902698,2,4/7/2018 22:52,10:51:00 PM,ROSWELL RD NE @ 5531,33.907231,-84.378718
520,902698,62,4/7/2018 9:31,9:29:00 AM,ROSWELL RD NE @ 5531,33.907231,-84.378718
521,902698,122,4/7/2018 15:32,3:29:00 PM,ROSWELL RD NE @ 5531,33.907231,-84.378718
522,902698,62,4/7/2018 17:31,5:29:00 PM,ROSWELL RD NE @ 5531,33.907231,-84.378718
523,902698,242,4/7/2018 19:34,7:29:00 PM,ROSWELL RD NE @ 5531,33.907231,-84.378718
524,902698,-58,4/7/2018 21:31,9:31:00 PM,ROSWELL RD NE @ 5531,33.907231,-84.378718
525,902698,2,4/7/2018 6:10,6:09:00 AM,ROSWELL RD NE @ 5531,33.907231,-84.378718
526,902698,362,4/7/2018 10:16,10:09:00 AM,ROSWELL RD NE @ 5531,33.907231,-84.378718
527,902698,122,4/7/2018 12:12,12:09:00 PM,ROSWELL RD NE @ 5531,33.907231,-84.378718
528,902698,122,4/7/2018 14:12,2:09:00 PM,ROSWELL RD NE @ 5531,33.907231,-84.378718
529,902698,482,4/7/2018 16:18,4:09:00 PM,ROSWELL RD NE @ 5531,33.907231,-84.378718
530,902698,242,4/7/2018 18:14,6:09:00 PM,ROSWELL RD NE @ 5531,33.907231,-84.378718
531,902698,122,4/7/2018 20:12,8:09:00 PM,ROSWELL RD NE @ 5531,33.907231,-84.378718
532,902698,242,4/7/2018 21:56,9:51:00 PM,ROSWELL RD NE @ 5531,33.907231,-84.378718
533,905863,102,4/7/2018 8:37,8:35:00 AM,ROSWELL RD NE @ LONG ISLAND DR NE,33.887263,-84.381677
534,905863,162,4/7/2018 16:38,4:35:00 PM,ROSWELL RD NE @ LONG ISLAND DR NE,33.887263,-84.381677
535,905863,42,4/7/2018 6:56,6:55:00 AM,ROSWELL RD NE @ LONG ISLAND DR NE,33.887263,-84.381677
536,905863,162,4/7/2018 8:58,8:55:00 AM,ROSWELL RD NE @ LONG ISLAND DR NE,33.887263,-84.381677
537,905863,402,4/7/2018 15:02,2:55:00 PM,ROSWELL RD NE @ LONG ISLAND DR NE,33.887263,-84.381677
538,905863,102,4/7/2018 5:57,5:55:00 AM,ROSWELL RD NE @ LONG ISLAND DR NE,33.887263,-84.381677
539,905863,222,4/7/2018 13:59,1:55:00 PM,ROSWELL RD NE @ LONG ISLAND DR NE,33.887263,-84.381677
540,905863,-18,4/7/2018 7:15,7:15:00 AM,ROSWELL RD NE @ LONG ISLAND DR NE,33.887263,-84.381677
541,905863,222,4/7/2018 11:19,11:15:00 AM,ROSWELL RD NE @ LONG ISLAND DR NE,33.887263,-84.381677
542,905863,222,4/7/2018 17:19,5:15:00 PM,ROSWELL RD NE @ LONG ISLAND DR NE,33.887263,-84.381677
543,905863,222,4/7/2018 5:39,5:35:00 AM,ROSWELL RD NE @ LONG ISLAND DR NE,33.887263,-84.381677
544,905863,-18,4/7/2018 9:35,9:35:00 AM,ROSWELL RD NE @ LONG ISLAND DR NE,33.887263,-84.381677
545,905863,-18,4/7/2018 15:35,3:35:00 PM,ROSWELL RD NE @ LONG ISLAND DR NE,33.887263,-84.381677
546,905863,-18,4/7/2018 17:35,5:35:00 PM,ROSWELL RD NE @ LONG ISLAND DR NE,33.887263,-84.381677
547,905863,282,4/7/2018 8:20,8:15:00 AM,ROSWELL RD NE @ LONG ISLAND DR NE,33.887263,-84.381677
548,905863,102,4/7/2018 12:17,12:15:00 PM,ROSWELL RD NE @ LONG ISLAND DR NE,33.887263,-84.381677
549,905863,282,4/7/2018 14:20,2:15:00 PM,ROSWELL RD NE @ LONG ISLAND DR NE,33.887263,-84.381677
550,905863,342,4/7/2018 16:21,4:15:00 PM,ROSWELL RD NE @ LONG ISLAND DR NE,33.887263,-84.381677
551,905863,102,4/7/2018 18:17,6:15:00 PM,ROSWELL RD NE @ LONG ISLAND DR NE,33.887263,-84.381677
552,905863,162,4/7/2018 18:18,6:15:00 PM,ROSWELL RD NE @ LONG ISLAND DR NE,33.887263,-84.381677
553,901756,-318,4/7/2018 8:52,8:57:00 AM,PIEDMONT RD NE @ SIDNEY MARCUS BLVD NE,33.825981,-84.367215
554,901756,-78,4/7/2018 14:56,2:57:00 PM,PIEDMONT RD NE @ SIDNEY MARCUS BLVD NE,33.825981,-84.367215
555,901756,162,4/7/2018 17:00,4:57:00 PM,PIEDMONT RD NE @ SIDNEY MARCUS BLVD NE,33.825981,-84.367215
556,901756,-404,4/8/2018 0:11,12:17:00 AM,PIEDMONT RD NE @ SIDNEY MARCUS BLVD NE,33.825981,-84.367215
557,901756,-258,4/7/2018 7:13,7:17:00 AM,PIEDMONT RD NE @ SIDNEY MARCUS BLVD NE,33.825981,-84.367215
558,901756,-198,4/7/2018 9:14,9:17:00 AM,PIEDMONT RD NE @ SIDNEY MARCUS BLVD NE,33.825981,-84.367215
559,901756,-258,4/7/2018 11:13,11:17:00 AM,PIEDMONT RD NE @ SIDNEY MARCUS BLVD NE,33.825981,-84.367215
560,901756,162,4/7/2018 13:20,1:17:00 PM,PIEDMONT RD NE @ SIDNEY MARCUS BLVD NE,33.825981,-84.367215
561,901756,822,4/7/2018 15:31,3:17:00 PM,PIEDMONT RD NE @ SIDNEY MARCUS BLVD NE,33.825981,-84.367215
562,901756,-198,4/7/2018 17:14,5:17:00 PM,PIEDMONT RD NE @ SIDNEY MARCUS BLVD NE,33.825981,-84.367215
563,901756,222,4/7/2018 16:21,4:17:00 PM,PIEDMONT RD NE @ SIDNEY MARCUS BLVD NE,33.825981,-84.367215
564,901756,-138,4/7/2018 18:15,6:17:00 PM,PIEDMONT RD NE @ SIDNEY MARCUS BLVD NE,33.825981,-84.367215
565,901756,-318,4/7/2018 20:12,8:17:00 PM,PIEDMONT RD NE @ SIDNEY MARCUS BLVD NE,33.825981,-84.367215
566,901756,402,4/7/2018 13:44,1:37:00 PM,PIEDMONT RD NE @ SIDNEY MARCUS BLVD NE,33.825981,-84.367215
567,901756,342,4/7/2018 15:43,3:37:00 PM,PIEDMONT RD NE @ SIDNEY MARCUS BLVD NE,33.825981,-84.367215
568,901756,402,4/7/2018 17:44,5:37:00 PM,PIEDMONT RD NE @ SIDNEY MARCUS BLVD NE,33.825981,-84.367215
569,901756,-44,4/7/2018 23:17,11:17:00 PM,PIEDMONT RD NE @ SIDNEY MARCUS BLVD NE,33.825981,-84.367215
570,901756,-138,4/7/2018 15:55,3:57:00 PM,PIEDMONT RD NE @ SIDNEY MARCUS BLVD NE,33.825981,-84.367215
571,901756,-258,4/7/2018 19:53,7:57:00 PM,PIEDMONT RD NE @ SIDNEY MARCUS BLVD NE,33.825981,-84.367215
572,901756,462,4/7/2018 14:45,2:37:00 PM,PIEDMONT RD NE @ SIDNEY MARCUS BLVD NE,33.825981,-84.367215
573,901756,402,4/7/2018 16:44,4:37:00 PM,PIEDMONT RD NE @ SIDNEY MARCUS BLVD NE,33.825981,-84.367215
574,901756,-258,4/7/2018 18:33,6:37:00 PM,PIEDMONT RD NE @ SIDNEY MARCUS BLVD NE,33.825981,-84.367215
575,901756,-138,4/7/2018 20:35,8:37:00 PM,PIEDMONT RD NE @ SIDNEY MARCUS BLVD NE,33.825981,-84.367215
576,901756,-104,4/7/2018 23:56,11:57:00 PM,PIEDMONT RD NE @ SIDNEY MARCUS BLVD NE,33.825981,-84.367215
577,900479,-20,4/7/2018 11:21,11:21:00 AM,PIEDMONT RD NE @ ELLIOTT CIR NE,33.833553,-84.367959
578,901704,-90,4/7/2018 11:24,11:25:00 AM,PIEDMONT RD NE @ MARTINA DR NE,33.841804,-84.37039
579,901704,-90,4/7/2018 15:24,3:25:00 PM,PIEDMONT RD NE @ MARTINA DR NE,33.841804,-84.37039
580,901704,-103,4/7/2018 21:22,9:23:00 PM,PIEDMONT RD NE @ MARTINA DR NE,33.841804,-84.37039
581,901704,-210,4/7/2018 7:42,7:45:00 AM,PIEDMONT RD NE @ MARTINA DR NE,33.841804,-84.37039
582,901704,90,4/7/2018 8:47,8:45:00 AM,PIEDMONT RD NE @ MARTINA DR NE,33.841804,-84.37039
583,901704,90,4/7/2018 8:07,8:05:00 AM,PIEDMONT RD NE @ MARTINA DR NE,33.841804,-84.37039
584,901704,30,4/7/2018 10:06,10:05:00 AM,PIEDMONT RD NE @ MARTINA DR NE,33.841804,-84.37039
585,901704,90,4/7/2018 12:07,12:05:00 PM,PIEDMONT RD NE @ MARTINA DR NE,33.841804,-84.37039
586,901704,-30,4/7/2018 18:05,6:05:00 PM,PIEDMONT RD NE @ MARTINA DR NE,33.841804,-84.37039
587,901704,-103,4/7/2018 22:02,10:03:00 PM,PIEDMONT RD NE @ MARTINA DR NE,33.841804,-84.37039
588,901704,-150,4/7/2018 8:23,8:25:00 AM,PIEDMONT RD NE @ MARTINA DR NE,33.841804,-84.37039
589,901704,-150,4/7/2018 14:23,2:25:00 PM,PIEDMONT RD NE @ MARTINA DR NE,33.841804,-84.37039
590,901704,-283,4/7/2018 22:19,10:23:00 PM,PIEDMONT RD NE @ MARTINA DR NE,33.841804,-84.37039
591,901704,30,4/7/2018 9:06,9:05:00 AM,PIEDMONT RD NE @ MARTINA DR NE,33.841804,-84.37039
592,901704,30,4/7/2018 11:06,11:05:00 AM,PIEDMONT RD NE @ MARTINA DR NE,33.841804,-84.37039
593,905524,-64,4/7/2018 11:29,11:30:00 AM,PIEDMONT RD NE @ HABERSHAM RD NE,33.852924,-84.381053
594,905524,-4,4/7/2018 13:50,1:50:00 PM,PIEDMONT RD NE @ HABERSHAM RD NE,33.852924,-84.381053
595,905524,116,4/7/2018 15:52,3:50:00 PM,PIEDMONT RD NE @ HABERSHAM RD NE,33.852924,-84.381053
596,905524,176,4/7/2018 17:53,5:50:00 PM,PIEDMONT RD NE @ HABERSHAM RD NE,33.852924,-84.381053
597,905524,116,4/7/2018 6:52,6:50:00 AM,PIEDMONT RD NE @ HABERSHAM RD NE,33.852924,-84.381053
598,905524,116,4/7/2018 8:52,8:50:00 AM,PIEDMONT RD NE @ HABERSHAM RD NE,33.852924,-84.381053
599,905524,-4,4/7/2018 10:50,10:50:00 AM,PIEDMONT RD NE @ HABERSHAM RD NE,33.852924,-84.381053
600,905524,116,4/7/2018 14:52,2:50:00 PM,PIEDMONT RD NE @ HABERSHAM RD NE,33.852924,-84.381053
601,905524,56,4/7/2018 16:51,4:50:00 PM,PIEDMONT RD NE @ HABERSHAM RD NE,33.852924,-84.381053
602,905524,116,4/7/2018 18:52,6:50:00 PM,PIEDMONT RD NE @ HABERSHAM RD NE,33.852924,-84.381053
603,905524,236,4/7/2018 12:14,12:10:00 PM,PIEDMONT RD NE @ HABERSHAM RD NE,33.852924,-84.381053
604,905524,296,4/7/2018 14:15,2:10:00 PM,PIEDMONT RD NE @ HABERSHAM RD NE,33.852924,-84.381053
605,905524,14,4/7/2018 22:08,10:07:00 PM,PIEDMONT RD NE @ HABERSHAM RD NE,33.852924,-84.381053
606,905524,-4,4/7/2018 8:30,8:30:00 AM,PIEDMONT RD NE @ HABERSHAM RD NE,33.852924,-84.381053
607,905524,56,4/7/2018 10:31,10:30:00 AM,PIEDMONT RD NE @ HABERSHAM RD NE,33.852924,-84.381053
608,905524,-4,4/7/2018 16:30,4:30:00 PM,PIEDMONT RD NE @ HABERSHAM RD NE,33.852924,-84.381053
609,905524,-4,4/7/2018 18:30,6:30:00 PM,PIEDMONT RD NE @ HABERSHAM RD NE,33.852924,-84.381053
610,905524,56,4/7/2018 20:31,8:30:00 PM,PIEDMONT RD NE @ HABERSHAM RD NE,33.852924,-84.381053
611,905524,116,4/7/2018 7:12,7:10:00 AM,PIEDMONT RD NE @ HABERSHAM RD NE,33.852924,-84.381053
612,905524,116,4/7/2018 9:12,9:10:00 AM,PIEDMONT RD NE @ HABERSHAM RD NE,33.852924,-84.381053
613,905524,116,4/7/2018 13:12,1:10:00 PM,PIEDMONT RD NE @ HABERSHAM RD NE,33.852924,-84.381053
614,905524,176,4/7/2018 15:13,3:10:00 PM,PIEDMONT RD NE @ HABERSHAM RD NE,33.852924,-84.381053
615,905524,176,4/7/2018 17:13,5:10:00 PM,PIEDMONT RD NE @ HABERSHAM RD NE,33.852924,-84.381053
616,905524,134,4/7/2018 21:12,9:09:00 PM,PIEDMONT RD NE @ HABERSHAM RD NE,33.852924,-84.381053
617,905524,134,4/8/2018 0:30,12:27:00 AM,PIEDMONT RD NE @ HABERSHAM RD NE,33.852924,-84.381053
618,905927,6,4/7/2018 11:31,11:30:00 AM,ROSWELL RD NE @ POWERS FERRY RD NW,33.855554,-84.382579
619,905927,66,4/7/2018 9:52,9:50:00 AM,ROSWELL RD NE @ POWERS FERRY RD NW,33.855554,-84.382579
620,905927,246,4/7/2018 11:55,11:50:00 AM,ROSWELL RD NE @ POWERS FERRY RD NW,33.855554,-84.382579
621,905927,186,4/7/2018 15:54,3:50:00 PM,ROSWELL RD NE @ POWERS FERRY RD NW,33.855554,-84.382579
622,905927,66,4/7/2018 10:52,10:50:00 AM,ROSWELL RD NE @ POWERS FERRY RD NW,33.855554,-84.382579
623,905927,366,4/7/2018 14:17,2:10:00 PM,ROSWELL RD NE @ POWERS FERRY RD NW,33.855554,-84.382579
624,905927,-54,4/7/2018 18:10,6:10:00 PM,ROSWELL RD NE @ POWERS FERRY RD NW,33.855554,-84.382579
625,905927,6,4/7/2018 20:11,8:10:00 PM,ROSWELL RD NE @ POWERS FERRY RD NW,33.855554,-84.382579
626,905927,6,4/7/2018 6:31,6:30:00 AM,ROSWELL RD NE @ POWERS FERRY RD NW,33.855554,-84.382579
627,905927,66,4/7/2018 12:32,12:30:00 PM,ROSWELL RD NE @ POWERS FERRY RD NW,33.855554,-84.382579
628,905927,-54,4/7/2018 14:30,2:30:00 PM,ROSWELL RD NE @ POWERS FERRY RD NW,33.855554,-84.382579
629,905927,66,4/7/2018 20:32,8:30:00 PM,ROSWELL RD NE @ POWERS FERRY RD NW,33.855554,-84.382579
630,905927,126,4/7/2018 7:13,7:10:00 AM,ROSWELL RD NE @ POWERS FERRY RD NW,33.855554,-84.382579
631,905927,126,4/7/2018 9:13,9:10:00 AM,ROSWELL RD NE @ POWERS FERRY RD NW,33.855554,-84.382579
632,905927,149,4/7/2018 21:13,9:10:00 PM,ROSWELL RD NE @ POWERS FERRY RD NW,33.855554,-84.382579
633,905988,-65,4/7/2018 11:39,11:40:00 AM,ROSWELL RD NE @ BELLE ISLE RD NE,33.890188,-84.381275
634,905988,55,4/7/2018 15:41,3:40:00 PM,ROSWELL RD NE @ BELLE ISLE RD NE,33.890188,-84.381275
635,905988,-125,4/7/2018 17:38,5:40:00 PM,ROSWELL RD NE @ BELLE ISLE RD NE,33.890188,-84.381275
636,905988,-65,4/7/2018 7:59,8:00:00 AM,ROSWELL RD NE @ BELLE ISLE RD NE,33.890188,-84.381275
637,905988,55,4/7/2018 10:01,10:00:00 AM,ROSWELL RD NE @ BELLE ISLE RD NE,33.890188,-84.381275
638,905988,115,4/7/2018 16:02,4:00:00 PM,ROSWELL RD NE @ BELLE ISLE RD NE,33.890188,-84.381275
639,905988,115,4/7/2018 18:02,6:00:00 PM,ROSWELL RD NE @ BELLE ISLE RD NE,33.890188,-84.381275
640,905988,175,4/7/2018 20:03,8:00:00 PM,ROSWELL RD NE @ BELLE ISLE RD NE,33.890188,-84.381275
641,905988,-5,4/7/2018 15:00,3:00:00 PM,ROSWELL RD NE @ BELLE ISLE RD NE,33.890188,-84.381275
642,905988,-5,4/7/2018 19:00,7:00:00 PM,ROSWELL RD NE @ BELLE ISLE RD NE,33.890188,-84.381275
643,905988,-125,4/7/2018 20:58,9:00:00 PM,ROSWELL RD NE @ BELLE ISLE RD NE,33.890188,-84.381275
644,905988,415,4/7/2018 14:27,2:20:00 PM,ROSWELL RD NE @ BELLE ISLE RD NE,33.890188,-84.381275
645,905988,-5,4/7/2018 18:20,6:20:00 PM,ROSWELL RD NE @ BELLE ISLE RD NE,33.890188,-84.381275
646,905988,9,4/7/2018 22:17,10:16:00 PM,ROSWELL RD NE @ BELLE ISLE RD NE,33.890188,-84.381275
647,905988,-5,4/7/2018 8:40,8:40:00 AM,ROSWELL RD NE @ BELLE ISLE RD NE,33.890188,-84.381275
648,905988,55,4/7/2018 10:41,10:40:00 AM,ROSWELL RD NE @ BELLE ISLE RD NE,33.890188,-84.381275
649,905988,55,4/7/2018 12:41,12:40:00 PM,ROSWELL RD NE @ BELLE ISLE RD NE,33.890188,-84.381275
650,905988,-125,4/7/2018 18:38,6:40:00 PM,ROSWELL RD NE @ BELLE ISLE RD NE,33.890188,-84.381275
651,905988,9,4/7/2018 22:37,10:36:00 PM,ROSWELL RD NE @ BELLE ISLE RD NE,33.890188,-84.381275
652,905988,69,4/8/2018 1:58,1:56:00 AM,ROSWELL RD NE @ BELLE ISLE RD NE,33.890188,-84.381275
653,905988,-5,4/7/2018 7:20,7:20:00 AM,ROSWELL RD NE @ BELLE ISLE RD NE,33.890188,-84.381275
654,905988,-5,4/7/2018 9:20,9:20:00 AM,ROSWELL RD NE @ BELLE ISLE RD NE,33.890188,-84.381275
655,905988,175,4/7/2018 15:23,3:20:00 PM,ROSWELL RD NE @ BELLE ISLE RD NE,33.890188,-84.381275
656,905988,175,4/7/2018 17:23,5:20:00 PM,ROSWELL RD NE @ BELLE ISLE RD NE,33.890188,-84.381275
657,905988,69,4/8/2018 0:38,12:36:00 AM,ROSWELL RD NE @ BELLE ISLE RD NE,33.890188,-84.381275
658,906308,120,4/7/2018 11:50,11:48:00 AM,ROSWELL RD NE@HAMMOND DR NE,33.918831,-84.378862
659,906308,-60,4/7/2018 17:47,5:48:00 PM,ROSWELL RD NE@HAMMOND DR NE,33.918831,-84.378862
660,906308,300,4/7/2018 16:13,4:08:00 PM,ROSWELL RD NE@HAMMOND DR NE,33.918831,-84.378862
661,906308,60,4/7/2018 7:09,7:08:00 AM,ROSWELL RD NE@HAMMOND DR NE,33.918831,-84.378862
662,906308,60,4/7/2018 9:09,9:08:00 AM,ROSWELL RD NE@HAMMOND DR NE,33.918831,-84.378862
663,906308,60,4/7/2018 11:09,11:08:00 AM,ROSWELL RD NE@HAMMOND DR NE,33.918831,-84.378862
664,906308,180,4/7/2018 8:31,8:28:00 AM,ROSWELL RD NE@HAMMOND DR NE,33.918831,-84.378862
665,906308,180,4/7/2018 12:31,12:28:00 PM,ROSWELL RD NE@HAMMOND DR NE,33.918831,-84.378862
666,906308,360,4/7/2018 16:34,4:28:00 PM,ROSWELL RD NE@HAMMOND DR NE,33.918831,-84.378862
667,906308,120,4/7/2018 18:30,6:28:00 PM,ROSWELL RD NE@HAMMOND DR NE,33.918831,-84.378862
668,906308,60,4/7/2018 22:25,10:24:00 PM,ROSWELL RD NE@HAMMOND DR NE,33.918831,-84.378862
669,906308,120,4/7/2018 12:50,12:48:00 PM,ROSWELL RD NE@HAMMOND DR NE,33.918831,-84.378862
670,906308,-120,4/7/2018 14:46,2:48:00 PM,ROSWELL RD NE@HAMMOND DR NE,33.918831,-84.378862
671,906308,60,4/7/2018 16:49,4:48:00 PM,ROSWELL RD NE@HAMMOND DR NE,33.918831,-84.378862
672,906308,-60,4/7/2018 18:47,6:48:00 PM,ROSWELL RD NE@HAMMOND DR NE,33.918831,-84.378862
673,906308,-120,4/8/2018 0:22,12:24:00 AM,ROSWELL RD NE@HAMMOND DR NE,33.918831,-84.378862
674,906308,120,4/7/2018 9:30,9:28:00 AM,ROSWELL RD NE@HAMMOND DR NE,33.918831,-84.378862
675,906308,0,4/7/2018 13:28,1:28:00 PM,ROSWELL RD NE@HAMMOND DR NE,33.918831,-84.378862
676,906308,240,4/7/2018 15:32,3:28:00 PM,ROSWELL RD NE@HAMMOND DR NE,33.918831,-84.378862
677,906308,240,4/7/2018 17:32,5:28:00 PM,ROSWELL RD NE@HAMMOND DR NE,33.918831,-84.378862
678,906308,60,4/7/2018 19:29,7:28:00 PM,ROSWELL RD NE@HAMMOND DR NE,33.918831,-84.378862
679,906308,0,4/8/2018 0:44,12:44:00 AM,ROSWELL RD NE@HAMMOND DR NE,33.918831,-84.378862
680,906333,5,4/7/2018 12:23,12:22:00 PM,JOHNSON FERRY RD@KAYRON DR,33.923119,-84.370666
681,906333,65,4/7/2018 6:44,6:42:00 AM,JOHNSON FERRY RD@KAYRON DR,33.923119,-84.370666
682,906333,105,4/7/2018 21:07,9:05:00 PM,JOHNSON FERRY RD@KAYRON DR,33.923119,-84.370666
683,905410,-8,4/7/2018 12:47,12:47:00 PM,PIEDMONT RD NE @ TOWER PLACE DR NE,33.84651,-84.372831
684,905410,172,4/7/2018 14:50,2:47:00 PM,PIEDMONT RD NE @ TOWER PLACE DR NE,33.84651,-84.372831
685,905410,472,4/7/2018 16:55,4:47:00 PM,PIEDMONT RD NE @ TOWER PLACE DR NE,33.84651,-84.372831
686,905410,112,4/7/2018 9:09,9:07:00 AM,PIEDMONT RD NE @ TOWER PLACE DR NE,33.84651,-84.372831
687,905410,-8,4/7/2018 11:07,11:07:00 AM,PIEDMONT RD NE @ TOWER PLACE DR NE,33.84651,-84.372831
688,905410,292,4/7/2018 13:12,1:07:00 PM,PIEDMONT RD NE @ TOWER PLACE DR NE,33.84651,-84.372831
689,905410,892,4/7/2018 15:22,3:07:00 PM,PIEDMONT RD NE @ TOWER PLACE DR NE,33.84651,-84.372831
690,905410,172,4/7/2018 21:12,9:09:00 PM,PIEDMONT RD NE @ TOWER PLACE DR NE,33.84651,-84.372831
691,905410,412,4/7/2018 14:14,2:07:00 PM,PIEDMONT RD NE @ TOWER PLACE DR NE,33.84651,-84.372831
692,905410,112,4/7/2018 18:09,6:07:00 PM,PIEDMONT RD NE @ TOWER PLACE DR NE,33.84651,-84.372831
693,905410,-8,4/7/2018 20:07,8:07:00 PM,PIEDMONT RD NE @ TOWER PLACE DR NE,33.84651,-84.372831
694,905410,712,4/7/2018 13:39,1:27:00 PM,PIEDMONT RD NE @ TOWER PLACE DR NE,33.84651,-84.372831
695,905410,472,4/7/2018 15:35,3:27:00 PM,PIEDMONT RD NE @ TOWER PLACE DR NE,33.84651,-84.372831
696,905410,592,4/7/2018 17:37,5:27:00 PM,PIEDMONT RD NE @ TOWER PLACE DR NE,33.84651,-84.372831
697,905410,172,4/7/2018 21:32,9:29:00 PM,PIEDMONT RD NE @ TOWER PLACE DR NE,33.84651,-84.372831
698,905410,-8,4/7/2018 5:47,5:47:00 AM,PIEDMONT RD NE @ TOWER PLACE DR NE,33.84651,-84.372831
699,905410,-8,4/7/2018 9:47,9:47:00 AM,PIEDMONT RD NE @ TOWER PLACE DR NE,33.84651,-84.372831
700,905410,112,4/7/2018 15:49,3:47:00 PM,PIEDMONT RD NE @ TOWER PLACE DR NE,33.84651,-84.372831
701,905410,292,4/7/2018 17:52,5:47:00 PM,PIEDMONT RD NE @ TOWER PLACE DR NE,33.84651,-84.372831
702,905410,52,4/7/2018 19:48,7:47:00 PM,PIEDMONT RD NE @ TOWER PLACE DR NE,33.84651,-84.372831
703,905410,112,4/7/2018 8:29,8:27:00 AM,PIEDMONT RD NE @ TOWER PLACE DR NE,33.84651,-84.372831
704,905410,592,4/7/2018 14:37,2:27:00 PM,PIEDMONT RD NE @ TOWER PLACE DR NE,33.84651,-84.372831
705,905410,412,4/7/2018 16:34,4:27:00 PM,PIEDMONT RD NE @ TOWER PLACE DR NE,33.84651,-84.372831
706,905410,52,4/7/2018 18:28,6:27:00 PM,PIEDMONT RD NE @ TOWER PLACE DR NE,33.84651,-84.372831
707,905410,172,4/7/2018 20:30,8:27:00 PM,PIEDMONT RD NE @ TOWER PLACE DR NE,33.84651,-84.372831
708,905410,112,4/7/2018 22:11,10:09:00 PM,PIEDMONT RD NE @ TOWER PLACE DR NE,33.84651,-84.372831
709,905410,112,4/7/2018 23:51,11:49:00 PM,PIEDMONT RD NE @ TOWER PLACE DR NE,33.84651,-84.372831
710,906306,-47,4/7/2018 13:44,1:44:00 PM,ROSWELL RD NE @ 5555,33.907636,-84.378673
711,906306,-167,4/7/2018 17:42,5:44:00 PM,ROSWELL RD NE @ 5555,33.907636,-84.378673
712,906306,-306,4/8/2018 0:56,1:01:00 AM,ROSWELL RD NE @ 5555,33.907636,-84.378673
713,906306,13,4/7/2018 10:05,10:04:00 AM,ROSWELL RD NE @ 5555,33.907636,-84.378673
714,906306,13,4/7/2018 16:05,4:04:00 PM,ROSWELL RD NE @ 5555,33.907636,-84.378673
715,906306,13,4/7/2018 18:05,6:04:00 PM,ROSWELL RD NE @ 5555,33.907636,-84.378673
716,906306,-47,4/7/2018 15:04,3:04:00 PM,ROSWELL RD NE @ 5555,33.907636,-84.378673
717,906306,13,4/7/2018 17:05,5:04:00 PM,ROSWELL RD NE @ 5555,33.907636,-84.378673
718,906306,-107,4/7/2018 21:03,9:04:00 PM,ROSWELL RD NE @ 5555,33.907636,-84.378673
719,906306,-167,4/7/2018 20:22,8:24:00 PM,ROSWELL RD NE @ 5555,33.907636,-84.378673
720,906306,-6,4/7/2018 22:21,10:21:00 PM,ROSWELL RD NE @ 5555,33.907636,-84.378673
721,906306,54,4/8/2018 0:02,12:01:00 AM,ROSWELL RD NE @ 5555,33.907636,-84.378673
722,906306,13,4/7/2018 10:45,10:44:00 AM,ROSWELL RD NE @ 5555,33.907636,-84.378673
723,906306,13,4/7/2018 12:45,12:44:00 PM,ROSWELL RD NE @ 5555,33.907636,-84.378673
724,906306,-47,4/7/2018 16:44,4:44:00 PM,ROSWELL RD NE @ 5555,33.907636,-84.378673
725,906306,-227,4/7/2018 18:41,6:44:00 PM,ROSWELL RD NE @ 5555,33.907636,-84.378673
726,906306,-107,4/7/2018 20:43,8:44:00 PM,ROSWELL RD NE @ 5555,33.907636,-84.378673
727,906306,-66,4/7/2018 22:40,10:41:00 PM,ROSWELL RD NE @ 5555,33.907636,-84.378673
728,906306,-47,4/7/2018 9:24,9:24:00 AM,ROSWELL RD NE @ 5555,33.907636,-84.378673
729,906306,133,4/7/2018 15:27,3:24:00 PM,ROSWELL RD NE @ 5555,33.907636,-84.378673
730,906306,133,4/7/2018 17:27,5:24:00 PM,ROSWELL RD NE @ 5555,33.907636,-84.378673
731,906306,-47,4/7/2018 19:24,7:24:00 PM,ROSWELL RD NE @ 5555,33.907636,-84.378673
732,906306,174,4/7/2018 21:26,9:23:00 PM,ROSWELL RD NE @ 5555,33.907636,-84.378673
733,906306,-6,4/8/2018 0:41,12:41:00 AM,ROSWELL RD NE @ 5555,33.907636,-84.378673
734,906290,-16,4/7/2018 13:45,1:45:00 PM,ROSWELL RD NE @ LAKE PLACID DR NE,33.909522,-84.378654
735,906290,-136,4/7/2018 17:43,5:45:00 PM,ROSWELL RD NE @ LAKE PLACID DR NE,33.909522,-84.378654
736,906290,-196,4/7/2018 19:42,7:45:00 PM,ROSWELL RD NE @ LAKE PLACID DR NE,33.909522,-84.378654
737,906290,-152,4/7/2018 21:39,9:41:00 PM,ROSWELL RD NE @ LAKE PLACID DR NE,33.909522,-84.378654
738,906290,-16,4/7/2018 8:05,8:05:00 AM,ROSWELL RD NE @ LAKE PLACID DR NE,33.909522,-84.378654
739,906290,44,4/7/2018 10:06,10:05:00 AM,ROSWELL RD NE @ LAKE PLACID DR NE,33.909522,-84.378654
740,906290,44,4/7/2018 12:06,12:05:00 PM,ROSWELL RD NE @ LAKE PLACID DR NE,33.909522,-84.378654
741,906290,104,4/7/2018 16:07,4:05:00 PM,ROSWELL RD NE @ LAKE PLACID DR NE,33.909522,-84.378654
742,906290,-16,4/7/2018 18:05,6:05:00 PM,ROSWELL RD NE @ LAKE PLACID DR NE,33.909522,-84.378654
743,906290,104,4/7/2018 20:07,8:05:00 PM,ROSWELL RD NE @ LAKE PLACID DR NE,33.909522,-84.378654
744,906290,44,4/7/2018 7:06,7:05:00 AM,ROSWELL RD NE @ LAKE PLACID DR NE,33.909522,-84.378654
745,906290,-16,4/7/2018 9:05,9:05:00 AM,ROSWELL RD NE @ LAKE PLACID DR NE,33.909522,-84.378654
746,906290,44,4/7/2018 11:06,11:05:00 AM,ROSWELL RD NE @ LAKE PLACID DR NE,33.909522,-84.378654
747,906290,44,4/7/2018 17:06,5:05:00 PM,ROSWELL RD NE @ LAKE PLACID DR NE,33.909522,-84.378654
748,906290,-76,4/7/2018 19:04,7:05:00 PM,ROSWELL RD NE @ LAKE PLACID DR NE,33.909522,-84.378654
749,906290,-136,4/7/2018 21:03,9:05:00 PM,ROSWELL RD NE @ LAKE PLACID DR NE,33.909522,-84.378654
750,906290,104,4/7/2018 8:27,8:25:00 AM,ROSWELL RD NE @ LAKE PLACID DR NE,33.909522,-84.378654
751,906290,464,4/7/2018 14:33,2:25:00 PM,ROSWELL RD NE @ LAKE PLACID DR NE,33.909522,-84.378654
752,906290,28,4/7/2018 22:22,10:21:00 PM,ROSWELL RD NE @ LAKE PLACID DR NE,33.909522,-84.378654
753,906290,88,4/8/2018 0:03,12:01:00 AM,ROSWELL RD NE @ LAKE PLACID DR NE,33.909522,-84.378654
754,906290,-212,4/8/2018 1:38,1:41:00 AM,ROSWELL RD NE @ LAKE PLACID DR NE,33.909522,-84.378654
755,906290,-76,4/7/2018 8:44,8:45:00 AM,ROSWELL RD NE @ LAKE PLACID DR NE,33.909522,-84.378654
756,906290,44,4/7/2018 12:46,12:45:00 PM,ROSWELL RD NE @ LAKE PLACID DR NE,33.909522,-84.378654
757,906290,-256,4/7/2018 14:41,2:45:00 PM,ROSWELL RD NE @ LAKE PLACID DR NE,33.909522,-84.378654
758,906290,-16,4/7/2018 16:45,4:45:00 PM,ROSWELL RD NE @ LAKE PLACID DR NE,33.909522,-84.378654
759,906290,-76,4/7/2018 20:44,8:45:00 PM,ROSWELL RD NE @ LAKE PLACID DR NE,33.909522,-84.378654
760,906290,-92,4/7/2018 22:40,10:41:00 PM,ROSWELL RD NE @ LAKE PLACID DR NE,33.909522,-84.378654
761,906290,272,4/8/2018 0:17,12:21:00 AM,ROSWELL RD NE @ LAKE PLACID DR NE,33.909522,-84.378654
762,906290,-16,4/7/2018 7:25,7:25:00 AM,ROSWELL RD NE @ LAKE PLACID DR NE,33.909522,-84.378654
763,906290,-16,4/7/2018 9:25,9:25:00 AM,ROSWELL RD NE @ LAKE PLACID DR NE,33.909522,-84.378654
764,906290,-76,4/7/2018 13:24,1:25:00 PM,ROSWELL RD NE @ LAKE PLACID DR NE,33.909522,-84.378654
765,906290,104,4/7/2018 15:27,3:25:00 PM,ROSWELL RD NE @ LAKE PLACID DR NE,33.909522,-84.378654
766,906290,104,4/7/2018 17:27,5:25:00 PM,ROSWELL RD NE @ LAKE PLACID DR NE,33.909522,-84.378654
767,906290,28,4/8/2018 0:42,12:41:00 AM,ROSWELL RD NE @ LAKE PLACID DR NE,33.909522,-84.378654
768,906292,33,4/7/2018 13:47,1:46:00 PM,ROSWELL RD NE @ ALLEN RD NE,33.914017,-84.379242
769,906292,33,4/7/2018 8:07,8:06:00 AM,ROSWELL RD NE @ ALLEN RD NE,33.914017,-84.379242
770,906292,213,4/7/2018 16:10,4:06:00 PM,ROSWELL RD NE @ ALLEN RD NE,33.914017,-84.379242
771,906292,93,4/7/2018 20:08,8:06:00 PM,ROSWELL RD NE @ ALLEN RD NE,33.914017,-84.379242
772,906292,93,4/7/2018 13:08,1:06:00 PM,ROSWELL RD NE @ ALLEN RD NE,33.914017,-84.379242
773,906292,93,4/7/2018 17:08,5:06:00 PM,ROSWELL RD NE @ ALLEN RD NE,33.914017,-84.379242
774,906292,-147,4/7/2018 21:04,9:06:00 PM,ROSWELL RD NE @ ALLEN RD NE,33.914017,-84.379242
775,906292,153,4/7/2018 8:29,8:26:00 AM,ROSWELL RD NE @ ALLEN RD NE,33.914017,-84.379242
776,906292,33,4/7/2018 18:27,6:26:00 PM,ROSWELL RD NE @ ALLEN RD NE,33.914017,-84.379242
777,906292,33,4/7/2018 16:47,4:46:00 PM,ROSWELL RD NE @ ALLEN RD NE,33.914017,-84.379242
778,906292,-27,4/7/2018 11:26,11:26:00 AM,ROSWELL RD NE @ ALLEN RD NE,33.914017,-84.379242
779,906292,-87,4/7/2018 13:25,1:26:00 PM,ROSWELL RD NE @ ALLEN RD NE,33.914017,-84.379242
780,906292,213,4/7/2018 15:30,3:26:00 PM,ROSWELL RD NE @ ALLEN RD NE,33.914017,-84.379242
781,906307,38,4/7/2018 13:48,1:47:00 PM,ROSWELL RD NE @ 5925,33.917522,-84.379041
782,906307,-142,4/7/2018 17:45,5:47:00 PM,ROSWELL RD NE @ 5925,33.917522,-84.379041
783,906307,-202,4/7/2018 19:44,7:47:00 PM,ROSWELL RD NE @ 5925,33.917522,-84.379041
784,906307,218,4/7/2018 16:11,4:07:00 PM,ROSWELL RD NE @ 5925,33.917522,-84.379041
785,906307,38,4/7/2018 18:08,6:07:00 PM,ROSWELL RD NE @ 5925,33.917522,-84.379041
786,906307,38,4/7/2018 7:08,7:07:00 AM,ROSWELL RD NE @ 5925,33.917522,-84.379041
787,906307,38,4/7/2018 9:08,9:07:00 AM,ROSWELL RD NE @ 5925,33.917522,-84.379041
788,906307,98,4/7/2018 13:09,1:07:00 PM,ROSWELL RD NE @ 5925,33.917522,-84.379041
789,906307,38,4/7/2018 15:08,3:07:00 PM,ROSWELL RD NE @ 5925,33.917522,-84.379041
790,906307,98,4/7/2018 17:09,5:07:00 PM,ROSWELL RD NE @ 5925,33.917522,-84.379041
791,906307,158,4/7/2018 8:30,8:27:00 AM,ROSWELL RD NE @ 5925,33.917522,-84.379041
792,906307,38,4/7/2018 18:28,6:27:00 PM,ROSWELL RD NE @ 5925,33.917522,-84.379041
793,906307,-82,4/7/2018 20:26,8:27:00 PM,ROSWELL RD NE @ 5925,33.917522,-84.379041
794,906307,-22,4/7/2018 8:47,8:47:00 AM,ROSWELL RD NE @ 5925,33.917522,-84.379041
795,906307,38,4/7/2018 10:48,10:47:00 AM,ROSWELL RD NE @ 5925,33.917522,-84.379041
796,906307,38,4/7/2018 16:48,4:47:00 PM,ROSWELL RD NE @ 5925,33.917522,-84.379041
797,906307,-82,4/7/2018 18:46,6:47:00 PM,ROSWELL RD NE @ 5925,33.917522,-84.379041
798,906307,38,4/7/2018 19:28,7:27:00 PM,ROSWELL RD NE @ 5925,33.917522,-84.379041
799,906309,98,4/7/2018 13:50,1:48:00 PM,ROSWELL RD NE @ SANDY SPRINGS PL NE,33.92001,-84.378944
800,906309,-80,4/7/2018 23:23,11:24:00 PM,ROSWELL RD NE @ SANDY SPRINGS PL NE,33.92001,-84.378944
801,906309,38,4/7/2018 8:09,8:08:00 AM,ROSWELL RD NE @ SANDY SPRINGS PL NE,33.92001,-84.378944
802,906309,98,4/7/2018 10:10,10:08:00 AM,ROSWELL RD NE @ SANDY SPRINGS PL NE,33.92001,-84.378944
803,906309,98,4/7/2018 12:10,12:08:00 PM,ROSWELL RD NE @ SANDY SPRINGS PL NE,33.92001,-84.378944
804,906309,98,4/7/2018 14:10,2:08:00 PM,ROSWELL RD NE @ SANDY SPRINGS PL NE,33.92001,-84.378944
805,906309,278,4/7/2018 16:13,4:08:00 PM,ROSWELL RD NE @ SANDY SPRINGS PL NE,33.92001,-84.378944
806,906309,38,4/7/2018 18:09,6:08:00 PM,ROSWELL RD NE @ SANDY SPRINGS PL NE,33.92001,-84.378944
807,906309,158,4/7/2018 20:11,8:08:00 PM,ROSWELL RD NE @ SANDY SPRINGS PL NE,33.92001,-84.378944
808,906309,38,4/7/2018 7:09,7:08:00 AM,ROSWELL RD NE @ SANDY SPRINGS PL NE,33.92001,-84.378944
809,906309,98,4/7/2018 9:10,9:08:00 AM,ROSWELL RD NE @ SANDY SPRINGS PL NE,33.92001,-84.378944
810,906309,158,4/7/2018 13:11,1:08:00 PM,ROSWELL RD NE @ SANDY SPRINGS PL NE,33.92001,-84.378944
811,906309,98,4/7/2018 15:10,3:08:00 PM,ROSWELL RD NE @ SANDY SPRINGS PL NE,33.92001,-84.378944
812,906309,98,4/7/2018 17:10,5:08:00 PM,ROSWELL RD NE @ SANDY SPRINGS PL NE,33.92001,-84.378944
813,906309,-20,4/7/2018 21:08,9:08:00 PM,ROSWELL RD NE @ SANDY SPRINGS PL NE,33.92001,-84.378944
814,906309,398,4/7/2018 16:35,4:28:00 PM,ROSWELL RD NE @ SANDY SPRINGS PL NE,33.92001,-84.378944
815,906309,98,4/7/2018 18:30,6:28:00 PM,ROSWELL RD NE @ SANDY SPRINGS PL NE,33.92001,-84.378944
816,906309,100,4/7/2018 22:26,10:24:00 PM,ROSWELL RD NE @ SANDY SPRINGS PL NE,33.92001,-84.378944
817,906309,-22,4/7/2018 8:48,8:48:00 AM,ROSWELL RD NE @ SANDY SPRINGS PL NE,33.92001,-84.378944
818,906309,98,4/7/2018 16:50,4:48:00 PM,ROSWELL RD NE @ SANDY SPRINGS PL NE,33.92001,-84.378944
819,906309,-22,4/7/2018 20:48,8:48:00 PM,ROSWELL RD NE @ SANDY SPRINGS PL NE,33.92001,-84.378944
820,906309,100,4/7/2018 22:46,10:44:00 PM,ROSWELL RD NE @ SANDY SPRINGS PL NE,33.92001,-84.378944
821,906309,-20,4/8/2018 0:24,12:24:00 AM,ROSWELL RD NE @ SANDY SPRINGS PL NE,33.92001,-84.378944
822,906309,-20,4/8/2018 2:04,2:04:00 AM,ROSWELL RD NE @ SANDY SPRINGS PL NE,33.92001,-84.378944
823,906309,-22,4/7/2018 7:28,7:28:00 AM,ROSWELL RD NE @ SANDY SPRINGS PL NE,33.92001,-84.378944
824,906309,-22,4/7/2018 13:28,1:28:00 PM,ROSWELL RD NE @ SANDY SPRINGS PL NE,33.92001,-84.378944
825,906309,218,4/7/2018 17:32,5:28:00 PM,ROSWELL RD NE @ SANDY SPRINGS PL NE,33.92001,-84.378944
826,906309,220,4/7/2018 21:30,9:26:00 PM,ROSWELL RD NE @ SANDY SPRINGS PL NE,33.92001,-84.378944
827,902662,-56,4/7/2018 14:23,2:23:00 PM,JOHNSON FERRY RD@HARLESTON RD,33.92371,-84.37488
828,902662,64,4/7/2018 14:45,2:43:00 PM,JOHNSON FERRY RD@HARLESTON RD,33.92371,-84.37488
829,902662,-116,4/7/2018 17:22,5:23:00 PM,JOHNSON FERRY RD@HARLESTON RD,33.92371,-84.37488
830,902662,-236,4/7/2018 10:00,10:03:00 AM,JOHNSON FERRY RD@HARLESTON RD,33.92371,-84.37488
831,902662,4,4/7/2018 16:04,4:03:00 PM,JOHNSON FERRY RD@HARLESTON RD,33.92371,-84.37488
832,902747,154,4/7/2018 14:34,2:31:00 PM,ROSWELL RD NE@GLENRIDGE DR NE,33.901628,-84.37916
833,902747,154,4/7/2018 6:54,6:51:00 AM,ROSWELL RD NE@GLENRIDGE DR NE,33.901628,-84.37916
834,902747,34,4/7/2018 7:12,7:11:00 AM,ROSWELL RD NE@GLENRIDGE DR NE,33.901628,-84.37916
835,902747,394,4/7/2018 15:18,3:11:00 PM,ROSWELL RD NE@GLENRIDGE DR NE,33.901628,-84.37916
836,902747,34,4/7/2018 8:12,8:11:00 AM,ROSWELL RD NE@GLENRIDGE DR NE,33.901628,-84.37916
837,905646,-74,4/7/2018 14:41,2:42:00 PM,ROSWELL RD NE @ LE BRUN RD NE,33.861167,-84.38045
838,905646,-194,4/7/2018 10:59,11:02:00 AM,ROSWELL RD NE @ LE BRUN RD NE,33.861167,-84.38045
839,905646,586,4/7/2018 15:12,3:02:00 PM,ROSWELL RD NE @ LE BRUN RD NE,33.861167,-84.38045
840,905646,-74,4/7/2018 17:01,5:02:00 PM,ROSWELL RD NE @ LE BRUN RD NE,33.861167,-84.38045
841,905646,286,4/7/2018 16:07,4:02:00 PM,ROSWELL RD NE @ LE BRUN RD NE,33.861167,-84.38045
842,905646,-134,4/7/2018 18:00,6:02:00 PM,ROSWELL RD NE @ LE BRUN RD NE,33.861167,-84.38045
843,905646,46,4/7/2018 9:23,9:22:00 AM,ROSWELL RD NE @ LE BRUN RD NE,33.861167,-84.38045
844,905646,286,4/7/2018 17:27,5:22:00 PM,ROSWELL RD NE @ LE BRUN RD NE,33.861167,-84.38045
845,905646,46,4/7/2018 19:23,7:22:00 PM,ROSWELL RD NE @ LE BRUN RD NE,33.861167,-84.38045
846,905646,-74,4/7/2018 17:41,5:42:00 PM,ROSWELL RD NE @ LE BRUN RD NE,33.861167,-84.38045
847,905646,-14,4/7/2018 19:42,7:42:00 PM,ROSWELL RD NE @ LE BRUN RD NE,33.861167,-84.38045
848,905646,106,4/7/2018 10:24,10:22:00 AM,ROSWELL RD NE @ LE BRUN RD NE,33.861167,-84.38045
849,905646,226,4/7/2018 14:26,2:22:00 PM,ROSWELL RD NE @ LE BRUN RD NE,33.861167,-84.38045
850,905646,346,4/7/2018 16:28,4:22:00 PM,ROSWELL RD NE @ LE BRUN RD NE,33.861167,-84.38045
851,905646,106,4/7/2018 18:24,6:22:00 PM,ROSWELL RD NE @ LE BRUN RD NE,33.861167,-84.38045
852,906001,-68,4/7/2018 14:42,2:43:00 PM,ROSWELL RD NE @ IVY PKWY NE,33.857882,-84.381481
853,906001,52,4/7/2018 9:04,9:03:00 AM,ROSWELL RD NE @ IVY PKWY NE,33.857882,-84.381481
854,906001,592,4/7/2018 15:13,3:03:00 PM,ROSWELL RD NE @ IVY PKWY NE,33.857882,-84.381481
855,906001,-68,4/7/2018 17:02,5:03:00 PM,ROSWELL RD NE @ IVY PKWY NE,33.857882,-84.381481
856,906001,-68,4/7/2018 10:02,10:03:00 AM,ROSWELL RD NE @ IVY PKWY NE,33.857882,-84.381481
857,906001,112,4/7/2018 14:05,2:03:00 PM,ROSWELL RD NE @ IVY PKWY NE,33.857882,-84.381481
858,906001,292,4/7/2018 16:08,4:03:00 PM,ROSWELL RD NE @ IVY PKWY NE,33.857882,-84.381481
859,906001,-128,4/7/2018 18:01,6:03:00 PM,ROSWELL RD NE @ IVY PKWY NE,33.857882,-84.381481
860,906001,-128,4/7/2018 20:01,8:03:00 PM,ROSWELL RD NE @ IVY PKWY NE,33.857882,-84.381481
861,906001,292,4/7/2018 13:28,1:23:00 PM,ROSWELL RD NE @ IVY PKWY NE,33.857882,-84.381481
862,906001,292,4/7/2018 17:28,5:23:00 PM,ROSWELL RD NE @ IVY PKWY NE,33.857882,-84.381481
863,906001,112,4/7/2018 19:25,7:23:00 PM,ROSWELL RD NE @ IVY PKWY NE,33.857882,-84.381481
864,906001,112,4/7/2018 21:27,9:25:00 PM,ROSWELL RD NE @ IVY PKWY NE,33.857882,-84.381481
865,906001,-8,4/7/2018 23:05,11:05:00 PM,ROSWELL RD NE @ IVY PKWY NE,33.857882,-84.381481
866,906001,-188,4/7/2018 11:40,11:43:00 AM,ROSWELL RD NE @ IVY PKWY NE,33.857882,-84.381481
867,906001,-68,4/7/2018 15:42,3:43:00 PM,ROSWELL RD NE @ IVY PKWY NE,33.857882,-84.381481
868,906001,-128,4/7/2018 21:43,9:45:00 PM,ROSWELL RD NE @ IVY PKWY NE,33.857882,-84.381481
869,906001,52,4/7/2018 6:24,6:23:00 AM,ROSWELL RD NE @ IVY PKWY NE,33.857882,-84.381481
870,906001,292,4/7/2018 14:28,2:23:00 PM,ROSWELL RD NE @ IVY PKWY NE,33.857882,-84.381481
871,906001,412,4/7/2018 16:30,4:23:00 PM,ROSWELL RD NE @ IVY PKWY NE,33.857882,-84.381481
872,906001,172,4/7/2018 20:26,8:23:00 PM,ROSWELL RD NE @ IVY PKWY NE,33.857882,-84.381481
873,906001,-8,4/7/2018 22:05,10:05:00 PM,ROSWELL RD NE @ IVY PKWY NE,33.857882,-84.381481
874,906001,112,4/7/2018 23:47,11:45:00 PM,ROSWELL RD NE @ IVY PKWY NE,33.857882,-84.381481
875,905760,227,4/7/2018 14:49,2:45:00 PM,PIEDMONT RD NE @ 3558,33.851152,-84.379376
876,905760,407,4/7/2018 16:52,4:45:00 PM,PIEDMONT RD NE @ 3558,33.851152,-84.379376
877,905760,47,4/7/2018 7:06,7:05:00 AM,PIEDMONT RD NE @ 3558,33.851152,-84.379376
878,905760,407,4/7/2018 16:12,4:05:00 PM,PIEDMONT RD NE @ 3558,33.851152,-84.379376
879,905760,47,4/7/2018 18:06,6:05:00 PM,PIEDMONT RD NE @ 3558,33.851152,-84.379376
880,905760,647,4/7/2018 13:36,1:25:00 PM,PIEDMONT RD NE @ 3558,33.851152,-84.379376
881,905760,467,4/7/2018 15:33,3:25:00 PM,PIEDMONT RD NE @ 3558,33.851152,-84.379376
882,905760,527,4/7/2018 17:34,5:25:00 PM,PIEDMONT RD NE @ 3558,33.851152,-84.379376
883,905760,587,4/7/2018 14:35,2:25:00 PM,PIEDMONT RD NE @ 3558,33.851152,-84.379376
884,900477,112,4/7/2018 15:20,3:18:00 PM,PIEDMONT RD NE @ MIAMI CIR NE,33.82701,-84.367019
885,900477,84,4/7/2018 21:19,9:17:00 PM,PIEDMONT RD NE @ MIAMI CIR NE,33.82701,-84.367019
886,900477,52,4/7/2018 9:39,9:38:00 AM,PIEDMONT RD NE @ MIAMI CIR NE,33.82701,-84.367019
887,900477,52,4/7/2018 11:39,11:38:00 AM,PIEDMONT RD NE @ MIAMI CIR NE,33.82701,-84.367019
888,900477,172,4/7/2018 15:41,3:38:00 PM,PIEDMONT RD NE @ MIAMI CIR NE,33.82701,-84.367019
889,900477,172,4/7/2018 19:41,7:38:00 PM,PIEDMONT RD NE @ MIAMI CIR NE,33.82701,-84.367019
890,900477,-8,4/7/2018 8:38,8:38:00 AM,PIEDMONT RD NE @ MIAMI CIR NE,33.82701,-84.367019
891,900477,112,4/7/2018 10:40,10:38:00 AM,PIEDMONT RD NE @ MIAMI CIR NE,33.82701,-84.367019
892,900477,112,4/7/2018 14:40,2:38:00 PM,PIEDMONT RD NE @ MIAMI CIR NE,33.82701,-84.367019
893,900477,52,4/7/2018 16:39,4:38:00 PM,PIEDMONT RD NE @ MIAMI CIR NE,33.82701,-84.367019
894,900477,112,4/7/2018 18:40,6:38:00 PM,PIEDMONT RD NE @ MIAMI CIR NE,33.82701,-84.367019
895,900477,112,4/7/2018 12:00,11:58:00 AM,PIEDMONT RD NE @ MIAMI CIR NE,33.82701,-84.367019
896,900477,-8,4/7/2018 13:58,1:58:00 PM,PIEDMONT RD NE @ MIAMI CIR NE,33.82701,-84.367019
897,900477,352,4/7/2018 16:04,3:58:00 PM,PIEDMONT RD NE @ MIAMI CIR NE,33.82701,-84.367019
898,900477,52,4/7/2018 17:59,5:58:00 PM,PIEDMONT RD NE @ MIAMI CIR NE,33.82701,-84.367019
899,900477,144,4/7/2018 23:40,11:37:00 PM,PIEDMONT RD NE @ MIAMI CIR NE,33.82701,-84.367019
900,900477,172,4/7/2018 6:21,6:18:00 AM,PIEDMONT RD NE @ MIAMI CIR NE,33.82701,-84.367019
901,900477,112,4/7/2018 10:20,10:18:00 AM,PIEDMONT RD NE @ MIAMI CIR NE,33.82701,-84.367019
902,900477,52,4/7/2018 14:19,2:18:00 PM,PIEDMONT RD NE @ MIAMI CIR NE,33.82701,-84.367019
903,900477,52,4/7/2018 16:19,4:18:00 PM,PIEDMONT RD NE @ MIAMI CIR NE,33.82701,-84.367019
904,900477,52,4/7/2018 20:19,8:18:00 PM,PIEDMONT RD NE @ MIAMI CIR NE,33.82701,-84.367019
905,900477,-8,4/7/2018 12:58,12:58:00 PM,PIEDMONT RD NE @ MIAMI CIR NE,33.82701,-84.367019
906,900477,52,4/7/2018 14:59,2:58:00 PM,PIEDMONT RD NE @ MIAMI CIR NE,33.82701,-84.367019
907,900477,52,4/7/2018 16:59,4:58:00 PM,PIEDMONT RD NE @ MIAMI CIR NE,33.82701,-84.367019
908,900477,112,4/7/2018 21:00,8:58:00 PM,PIEDMONT RD NE @ MIAMI CIR NE,33.82701,-84.367019
909,900477,84,4/7/2018 22:39,10:37:00 PM,PIEDMONT RD NE @ MIAMI CIR NE,33.82701,-84.367019
910,901757,36,4/7/2018 15:21,3:20:00 PM,PIEDMONT RD NE @ DARLINGTON RD,33.831619,-84.368001
911,901757,36,4/7/2018 16:21,4:20:00 PM,PIEDMONT RD NE @ DARLINGTON RD,33.831619,-84.368001
912,901703,-54,4/7/2018 15:23,3:23:00 PM,PIEDMONT RD NE @ E PACES FERRY RD NE,33.838752,-84.368854
913,901703,-143,4/7/2018 23:00,11:02:00 PM,PIEDMONT RD NE @ E PACES FERRY RD NE,33.838752,-84.368854
914,901703,6,4/7/2018 15:44,3:43:00 PM,PIEDMONT RD NE @ E PACES FERRY RD NE,33.838752,-84.368854
915,901703,66,4/7/2018 17:45,5:43:00 PM,PIEDMONT RD NE @ E PACES FERRY RD NE,33.838752,-84.368854
916,901703,-114,4/7/2018 6:42,6:43:00 AM,PIEDMONT RD NE @ E PACES FERRY RD NE,33.838752,-84.368854
917,901703,-114,4/7/2018 12:42,12:43:00 PM,PIEDMONT RD NE @ E PACES FERRY RD NE,33.838752,-84.368854
918,901703,6,4/7/2018 14:44,2:43:00 PM,PIEDMONT RD NE @ E PACES FERRY RD NE,33.838752,-84.368854
919,901703,-114,4/7/2018 8:02,8:03:00 AM,PIEDMONT RD NE @ E PACES FERRY RD NE,33.838752,-84.368854
920,901703,246,4/7/2018 16:08,4:03:00 PM,PIEDMONT RD NE @ E PACES FERRY RD NE,33.838752,-84.368854
921,901703,97,4/7/2018 23:44,11:42:00 PM,PIEDMONT RD NE @ E PACES FERRY RD NE,33.838752,-84.368854
922,901703,-54,4/7/2018 6:23,6:23:00 AM,PIEDMONT RD NE @ E PACES FERRY RD NE,33.838752,-84.368854
923,901703,-114,4/7/2018 10:22,10:23:00 AM,PIEDMONT RD NE @ E PACES FERRY RD NE,33.838752,-84.368854
924,901703,-234,4/7/2018 12:20,12:23:00 PM,PIEDMONT RD NE @ E PACES FERRY RD NE,33.838752,-84.368854
925,901703,-114,4/7/2018 14:22,2:23:00 PM,PIEDMONT RD NE @ E PACES FERRY RD NE,33.838752,-84.368854
926,901703,-54,4/7/2018 16:23,4:23:00 PM,PIEDMONT RD NE @ E PACES FERRY RD NE,33.838752,-84.368854
927,901703,263,4/7/2018 23:58,12:02:00 AM,PIEDMONT RD NE @ E PACES FERRY RD NE,33.838752,-84.368854
928,901703,6,4/7/2018 7:04,7:03:00 AM,PIEDMONT RD NE @ E PACES FERRY RD NE,33.838752,-84.368854
929,901703,6,4/7/2018 15:04,3:03:00 PM,PIEDMONT RD NE @ E PACES FERRY RD NE,33.838752,-84.368854
930,901703,6,4/7/2018 15:04,3:03:00 PM,PIEDMONT RD NE @ E PACES FERRY RD NE,33.838752,-84.368854
931,901703,6,4/7/2018 17:04,5:03:00 PM,PIEDMONT RD NE @ E PACES FERRY RD NE,33.838752,-84.368854
932,901703,6,4/7/2018 19:04,7:03:00 PM,PIEDMONT RD NE @ E PACES FERRY RD NE,33.838752,-84.368854
933,906361,202,4/7/2018 16:31,4:27:00 PM,ROSWELL RD NE @ CLIFTWOOD DR NE,33.916242,-84.379236
934,906361,142,4/7/2018 18:30,6:27:00 PM,ROSWELL RD NE @ CLIFTWOOD DR NE,33.916242,-84.379236
935,906361,142,4/7/2018 6:50,6:47:00 AM,ROSWELL RD NE @ CLIFTWOOD DR NE,33.916242,-84.379236
936,906361,382,4/7/2018 14:54,2:47:00 PM,ROSWELL RD NE @ CLIFTWOOD DR NE,33.916242,-84.379236
937,906361,202,4/7/2018 13:51,1:47:00 PM,ROSWELL RD NE @ CLIFTWOOD DR NE,33.916242,-84.379236
938,906361,202,4/7/2018 15:51,3:47:00 PM,ROSWELL RD NE @ CLIFTWOOD DR NE,33.916242,-84.379236
939,906361,202,4/7/2018 9:11,9:07:00 AM,ROSWELL RD NE @ CLIFTWOOD DR NE,33.916242,-84.379236
940,906361,322,4/7/2018 15:13,3:07:00 PM,ROSWELL RD NE @ CLIFTWOOD DR NE,33.916242,-84.379236
941,906361,202,4/7/2018 17:11,5:07:00 PM,ROSWELL RD NE @ CLIFTWOOD DR NE,33.916242,-84.379236
942,906361,142,4/7/2018 19:10,7:07:00 PM,ROSWELL RD NE @ CLIFTWOOD DR NE,33.916242,-84.379236
943,906361,22,4/7/2018 22:50,10:49:00 PM,ROSWELL RD NE @ CLIFTWOOD DR NE,33.916242,-84.379236
944,906361,82,4/7/2018 15:29,3:27:00 PM,ROSWELL RD NE @ CLIFTWOOD DR NE,33.916242,-84.379236
945,906361,82,4/7/2018 17:29,5:27:00 PM,ROSWELL RD NE @ CLIFTWOOD DR NE,33.916242,-84.379236
946,906361,142,4/7/2018 19:30,7:27:00 PM,ROSWELL RD NE @ CLIFTWOOD DR NE,33.916242,-84.379236
947,906361,22,4/7/2018 8:08,8:07:00 AM,ROSWELL RD NE @ CLIFTWOOD DR NE,33.916242,-84.379236
948,906361,82,4/7/2018 14:09,2:07:00 PM,ROSWELL RD NE @ CLIFTWOOD DR NE,33.916242,-84.379236
949,905864,147,4/7/2018 16:37,4:34:00 PM,ROSWELL RD NE@W BELLE ISLE RD NE,33.890163,-84.381524
950,905864,207,4/7/2018 12:58,12:54:00 PM,ROSWELL RD NE@W BELLE ISLE RD NE,33.890163,-84.381524
951,905864,447,4/7/2018 15:02,2:54:00 PM,ROSWELL RD NE@W BELLE ISLE RD NE,33.890163,-84.381524
952,905864,27,4/7/2018 16:55,4:54:00 PM,ROSWELL RD NE@W BELLE ISLE RD NE,33.890163,-84.381524
953,905864,267,4/7/2018 21:01,8:56:00 PM,ROSWELL RD NE@W BELLE ISLE RD NE,33.890163,-84.381524
954,905864,87,4/7/2018 5:56,5:54:00 AM,ROSWELL RD NE@W BELLE ISLE RD NE,33.890163,-84.381524
955,905864,207,4/7/2018 13:58,1:54:00 PM,ROSWELL RD NE@W BELLE ISLE RD NE,33.890163,-84.381524
956,905864,267,4/7/2018 15:59,3:54:00 PM,ROSWELL RD NE@W BELLE ISLE RD NE,33.890163,-84.381524
957,905864,-93,4/7/2018 17:53,5:54:00 PM,ROSWELL RD NE@W BELLE ISLE RD NE,33.890163,-84.381524
958,905864,207,4/7/2018 11:18,11:14:00 AM,ROSWELL RD NE@W BELLE ISLE RD NE,33.890163,-84.381524
959,905864,327,4/7/2018 15:20,3:14:00 PM,ROSWELL RD NE@W BELLE ISLE RD NE,33.890163,-84.381524
960,905864,207,4/7/2018 17:18,5:14:00 PM,ROSWELL RD NE@W BELLE ISLE RD NE,33.890163,-84.381524
961,905864,147,4/7/2018 19:17,7:14:00 PM,ROSWELL RD NE@W BELLE ISLE RD NE,33.890163,-84.381524
962,905864,147,4/7/2018 21:19,9:16:00 PM,ROSWELL RD NE@W BELLE ISLE RD NE,33.890163,-84.381524
963,905864,-33,4/7/2018 22:56,10:56:00 PM,ROSWELL RD NE@W BELLE ISLE RD NE,33.890163,-84.381524
964,905864,-33,4/7/2018 9:34,9:34:00 AM,ROSWELL RD NE@W BELLE ISLE RD NE,33.890163,-84.381524
965,905864,27,4/7/2018 11:35,11:34:00 AM,ROSWELL RD NE@W BELLE ISLE RD NE,33.890163,-84.381524
966,905864,27,4/7/2018 15:35,3:34:00 PM,ROSWELL RD NE@W BELLE ISLE RD NE,33.890163,-84.381524
967,905864,147,4/7/2018 19:37,7:34:00 PM,ROSWELL RD NE@W BELLE ISLE RD NE,33.890163,-84.381524
968,905864,327,4/8/2018 1:02,12:56:00 AM,ROSWELL RD NE@W BELLE ISLE RD NE,33.890163,-84.381524
969,905864,267,4/7/2018 8:19,8:14:00 AM,ROSWELL RD NE@W BELLE ISLE RD NE,33.890163,-84.381524
970,905864,387,4/7/2018 16:21,4:14:00 PM,ROSWELL RD NE@W BELLE ISLE RD NE,33.890163,-84.381524
971,905864,27,4/7/2018 20:15,8:14:00 PM,ROSWELL RD NE@W BELLE ISLE RD NE,33.890163,-84.381524
972,905864,207,4/7/2018 23:40,11:36:00 PM,ROSWELL RD NE@W BELLE ISLE RD NE,33.890163,-84.381524
973,905578,-68,4/7/2018 17:35,5:36:00 PM,ROSWELL RD NE @ WIEUCA RD NE,33.875271,-84.380612
974,905578,-135,4/7/2018 23:11,11:13:00 PM,ROSWELL RD NE @ WIEUCA RD NE,33.875271,-84.380612
975,905578,112,4/7/2018 11:58,11:56:00 AM,ROSWELL RD NE @ WIEUCA RD NE,33.875271,-84.380612
976,905578,52,4/7/2018 14:57,2:56:00 PM,ROSWELL RD NE @ WIEUCA RD NE,33.875271,-84.380612
977,905578,-8,4/7/2018 20:16,8:16:00 PM,ROSWELL RD NE @ WIEUCA RD NE,33.875271,-84.380612
978,905578,-68,4/7/2018 8:35,8:36:00 AM,ROSWELL RD NE @ WIEUCA RD NE,33.875271,-84.380612
979,905578,-8,4/7/2018 20:36,8:36:00 PM,ROSWELL RD NE @ WIEUCA RD NE,33.875271,-84.380612
980,905579,-41,4/7/2018 17:36,5:36:00 PM,ROSWELL RD NE @ DILBECK PL NW,33.877285,-84.379764
981,905579,79,4/7/2018 9:58,9:56:00 AM,ROSWELL RD NE @ DILBECK PL NW,33.877285,-84.379764
982,905579,139,4/7/2018 15:59,3:56:00 PM,ROSWELL RD NE @ DILBECK PL NW,33.877285,-84.379764
983,905579,79,4/7/2018 17:58,5:56:00 PM,ROSWELL RD NE @ DILBECK PL NW,33.877285,-84.379764
984,905579,139,4/7/2018 8:19,8:16:00 AM,ROSWELL RD NE @ DILBECK PL NW,33.877285,-84.379764
985,905579,199,4/7/2018 12:20,12:16:00 PM,ROSWELL RD NE @ DILBECK PL NW,33.877285,-84.379764
986,905579,-41,4/7/2018 18:16,6:16:00 PM,ROSWELL RD NE @ DILBECK PL NW,33.877285,-84.379764
987,905579,-41,4/7/2018 8:36,8:36:00 AM,ROSWELL RD NE @ DILBECK PL NW,33.877285,-84.379764
988,905579,19,4/7/2018 10:37,10:36:00 AM,ROSWELL RD NE @ DILBECK PL NW,33.877285,-84.379764
989,905579,19,4/7/2018 12:37,12:36:00 PM,ROSWELL RD NE @ DILBECK PL NW,33.877285,-84.379764
990,905579,255,4/7/2018 21:20,9:15:00 PM,ROSWELL RD NE @ DILBECK PL NW,33.877285,-84.379764
991,906293,-167,4/7/2018 19:44,7:46:00 PM,ROSWELL RD NE @ CARPENTER DR NE,33.915285,-84.379235
992,906293,-294,4/8/2018 0:58,1:02:00 AM,ROSWELL RD NE @ CARPENTER DR NE,33.915285,-84.379235
993,906293,13,4/7/2018 8:07,8:06:00 AM,ROSWELL RD NE @ CARPENTER DR NE,33.915285,-84.379235
994,906293,13,4/7/2018 7:07,7:06:00 AM,ROSWELL RD NE @ CARPENTER DR NE,33.915285,-84.379235
995,906293,13,4/7/2018 9:07,9:06:00 AM,ROSWELL RD NE @ CARPENTER DR NE,33.915285,-84.379235
996,906293,13,4/7/2018 15:07,3:06:00 PM,ROSWELL RD NE @ CARPENTER DR NE,33.915285,-84.379235
997,906293,193,4/7/2018 8:30,8:26:00 AM,ROSWELL RD NE @ CARPENTER DR NE,33.915285,-84.379235
998,906293,493,4/7/2018 14:35,2:26:00 PM,ROSWELL RD NE @ CARPENTER DR NE,33.915285,-84.379235
999,906293,66,4/7/2018 22:24,10:22:00 PM,ROSWELL RD NE @ CARPENTER DR NE,33.915285,-84.379235
1000,906293,-47,4/7/2018 8:46,8:46:00 AM,ROSWELL RD NE @ CARPENTER DR NE,33.915285,-84.379235
1001,906293,-227,4/7/2018 14:43,2:46:00 PM,ROSWELL RD NE @ CARPENTER DR NE,33.915285,-84.379235
1002,906293,66,4/7/2018 22:44,10:42:00 PM,ROSWELL RD NE @ CARPENTER DR NE,33.915285,-84.379235
1003,906293,-54,4/8/2018 2:02,2:02:00 AM,ROSWELL RD NE @ CARPENTER DR NE,33.915285,-84.379235
1004,905523,-69,4/7/2018 23:06,11:07:00 PM,PIEDMONT RD NE @ 3565,33.85092,-84.378984
1005,905523,157,4/7/2018 11:52,11:49:00 AM,PIEDMONT RD NE @ 3565,33.85092,-84.378984
1006,905523,97,4/7/2018 8:51,8:49:00 AM,PIEDMONT RD NE @ 3565,33.85092,-84.378984
1007,905523,-23,4/7/2018 10:49,10:49:00 AM,PIEDMONT RD NE @ 3565,33.85092,-84.378984
1008,905523,97,4/7/2018 12:51,12:49:00 PM,PIEDMONT RD NE @ 3565,33.85092,-84.378984
1009,905523,157,4/7/2018 8:12,8:09:00 AM,PIEDMONT RD NE @ 3565,33.85092,-84.378984
1010,905523,37,4/7/2018 16:30,4:29:00 PM,PIEDMONT RD NE @ 3565,33.85092,-84.378984
1011,901705,-310,4/8/2018 0:06,12:11:00 AM,PIEDMONT RD NE @ MARTINA DR NE,33.84171,-84.37053
1012,901705,36,4/7/2018 9:10,9:09:00 AM,PIEDMONT RD NE @ MARTINA DR NE,33.84171,-84.37053
1013,901705,36,4/7/2018 17:10,5:09:00 PM,PIEDMONT RD NE @ MARTINA DR NE,33.84171,-84.37053
1014,901705,170,4/7/2018 21:14,9:11:00 PM,PIEDMONT RD NE @ MARTINA DR NE,33.84171,-84.37053
1015,901705,456,4/7/2018 16:17,4:09:00 PM,PIEDMONT RD NE @ MARTINA DR NE,33.84171,-84.37053
1016,901705,636,4/7/2018 13:40,1:29:00 PM,PIEDMONT RD NE @ MARTINA DR NE,33.84171,-84.37053
1017,901705,96,4/7/2018 15:51,3:49:00 PM,PIEDMONT RD NE @ MARTINA DR NE,33.84171,-84.37053
1018,901705,50,4/8/2018 1:12,1:11:00 AM,PIEDMONT RD NE @ MARTINA DR NE,33.84171,-84.37053
1019,901705,696,4/7/2018 14:41,2:29:00 PM,PIEDMONT RD NE @ MARTINA DR NE,33.84171,-84.37053
1020,901705,636,4/7/2018 16:40,4:29:00 PM,PIEDMONT RD NE @ MARTINA DR NE,33.84171,-84.37053
1021,903009,0,4/7/2018 6:35,6:35:00 AM,DUNWOODY STATION,33.920969,-84.344734
1022,903009,-240,4/7/2018 8:16,8:20:00 AM,DUNWOODY STATION,33.920969,-84.344734
1023,903009,-120,4/7/2018 20:18,8:20:00 PM,DUNWOODY STATION,33.920969,-84.344734
1024,903009,60,4/7/2018 5:36,5:35:00 AM,DUNWOODY STATION,33.920969,-84.344734
1025,903009,120,4/7/2018 5:37,5:35:00 AM,DUNWOODY STATION,33.920969,-84.344734
1026,903009,-240,4/7/2018 7:16,7:20:00 AM,DUNWOODY STATION,33.920969,-84.344734
1027,903009,-120,4/7/2018 9:18,9:20:00 AM,DUNWOODY STATION,33.920969,-84.344734
1028,903009,-120,4/7/2018 11:18,11:20:00 AM,DUNWOODY STATION,33.920969,-84.344734
1029,903009,-60,4/7/2018 15:19,3:20:00 PM,DUNWOODY STATION,33.920969,-84.344734
1030,903009,60,4/7/2018 15:36,3:35:00 PM,DUNWOODY STATION,33.920969,-84.344734
1031,903009,-120,4/7/2018 19:38,7:40:00 PM,DUNWOODY STATION,33.920969,-84.344734
1032,903009,-180,4/7/2018 21:16,9:19:00 PM,DUNWOODY STATION,33.920969,-84.344734
1033,903009,-120,4/7/2018 22:33,10:35:00 PM,DUNWOODY STATION,33.920969,-84.344734
1034,903009,-120,4/8/2018 0:13,12:15:00 AM,DUNWOODY STATION,33.920969,-84.344734
1035,903009,360,4/7/2018 5:21,5:15:00 AM,DUNWOODY STATION,33.920969,-84.344734
1036,903009,-180,4/7/2018 6:57,7:00:00 AM,DUNWOODY STATION,33.920969,-84.344734
1037,903009,-240,4/7/2018 8:56,9:00:00 AM,DUNWOODY STATION,33.920969,-84.344734
1038,903009,-300,4/7/2018 11:15,11:20:00 AM,DUNWOODY STATION,33.920969,-84.344734
1039,903009,-180,4/7/2018 14:57,3:00:00 PM,DUNWOODY STATION,33.920969,-84.344734
1040,903009,-180,4/7/2018 16:57,5:00:00 PM,DUNWOODY STATION,33.920969,-84.344734
1041,903009,-180,4/7/2018 18:57,7:00:00 PM,DUNWOODY STATION,33.920969,-84.344734
1042,903009,-360,4/7/2018 20:54,9:00:00 PM,DUNWOODY STATION,33.920969,-84.344734
1043,903009,-180,4/7/2018 22:52,10:55:00 PM,DUNWOODY STATION,33.920969,-84.344734
1044,903009,-300,4/7/2018 7:35,7:40:00 AM,DUNWOODY STATION,33.920969,-84.344734
1045,903009,-120,4/7/2018 9:38,9:40:00 AM,DUNWOODY STATION,33.920969,-84.344734
1046,903009,-180,4/7/2018 11:37,11:40:00 AM,DUNWOODY STATION,33.920969,-84.344734
1047,903009,-180,4/7/2018 13:37,1:40:00 PM,DUNWOODY STATION,33.920969,-84.344734
1048,903009,60,4/7/2018 15:56,3:55:00 PM,DUNWOODY STATION,33.920969,-84.344734
1049,903009,-240,4/7/2018 17:56,6:00:00 PM,DUNWOODY STATION,33.920969,-84.344734
1050,903009,120,4/7/2018 21:40,9:38:00 PM,DUNWOODY STATION,33.920969,-84.344734
1051,902704,120,4/7/2018 6:40,6:38:00 AM,HAMMOND DR @ PEACHTREE DUNWOODY RD,33.918961,-84.351952
1052,902704,120,4/7/2018 8:40,8:38:00 AM,HAMMOND DR @ PEACHTREE DUNWOODY RD,33.918961,-84.351952
1053,902704,-60,4/7/2018 10:37,10:38:00 AM,HAMMOND DR @ PEACHTREE DUNWOODY RD,33.918961,-84.351952
1054,902704,120,4/7/2018 12:40,12:38:00 PM,HAMMOND DR @ PEACHTREE DUNWOODY RD,33.918961,-84.351952
1055,902704,120,4/7/2018 14:40,2:38:00 PM,HAMMOND DR @ PEACHTREE DUNWOODY RD,33.918961,-84.351952
1056,902704,120,4/7/2018 16:40,4:38:00 PM,HAMMOND DR @ PEACHTREE DUNWOODY RD,33.918961,-84.351952
1057,902704,120,4/7/2018 9:40,9:38:00 AM,HAMMOND DR @ PEACHTREE DUNWOODY RD,33.918961,-84.351952
1058,902704,180,4/7/2018 13:41,1:38:00 PM,HAMMOND DR @ PEACHTREE DUNWOODY RD,33.918961,-84.351952
1059,902704,60,4/7/2018 15:39,3:38:00 PM,HAMMOND DR @ PEACHTREE DUNWOODY RD,33.918961,-84.351952
1060,902704,60,4/7/2018 6:59,6:58:00 AM,HAMMOND DR @ PEACHTREE DUNWOODY RD,33.918961,-84.351952
1061,902704,120,4/7/2018 9:00,8:58:00 AM,HAMMOND DR @ PEACHTREE DUNWOODY RD,33.918961,-84.351952
1062,902704,240,4/7/2018 15:02,2:58:00 PM,HAMMOND DR @ PEACHTREE DUNWOODY RD,33.918961,-84.351952
1063,902704,60,4/7/2018 18:59,6:58:00 PM,HAMMOND DR @ PEACHTREE DUNWOODY RD,33.918961,-84.351952
1064,902704,120,4/7/2018 11:20,11:18:00 AM,HAMMOND DR @ PEACHTREE DUNWOODY RD,33.918961,-84.351952
1065,902704,-60,4/7/2018 15:17,3:18:00 PM,HAMMOND DR @ PEACHTREE DUNWOODY RD,33.918961,-84.351952
1066,902704,0,4/7/2018 17:18,5:18:00 PM,HAMMOND DR @ PEACHTREE DUNWOODY RD,33.918961,-84.351952
1067,902704,555,4/8/2018 0:50,12:40:00 AM,HAMMOND DR @ PEACHTREE DUNWOODY RD,33.918961,-84.351952
1068,902704,615,4/8/2018 0:51,12:40:00 AM,HAMMOND DR @ PEACHTREE DUNWOODY RD,33.918961,-84.351952
1069,902704,180,4/7/2018 8:01,7:58:00 AM,HAMMOND DR @ PEACHTREE DUNWOODY RD,33.918961,-84.351952
1070,902704,0,4/7/2018 19:58,7:58:00 PM,HAMMOND DR @ PEACHTREE DUNWOODY RD,33.918961,-84.351952
1071,902704,15,4/7/2018 23:21,11:20:00 PM,HAMMOND DR @ PEACHTREE DUNWOODY RD,33.918961,-84.351952
1072,902868,120,4/7/2018 6:42,6:40:00 AM,HAMMOND DR NE @ BARFIELD RD NE,33.919113,-84.360336
1073,902868,60,4/7/2018 8:41,8:40:00 AM,HAMMOND DR NE @ BARFIELD RD NE,33.919113,-84.360336
1074,902868,180,4/7/2018 12:43,12:40:00 PM,HAMMOND DR NE @ BARFIELD RD NE,33.919113,-84.360336
1075,902868,120,4/7/2018 14:42,2:40:00 PM,HAMMOND DR NE @ BARFIELD RD NE,33.919113,-84.360336
1076,902868,60,4/7/2018 15:41,3:40:00 PM,HAMMOND DR NE @ BARFIELD RD NE,33.919113,-84.360336
1077,902868,60,4/7/2018 7:01,7:00:00 AM,HAMMOND DR NE @ BARFIELD RD NE,33.919113,-84.360336
1078,902868,120,4/7/2018 9:02,9:00:00 AM,HAMMOND DR NE @ BARFIELD RD NE,33.919113,-84.360336
1079,902868,0,4/7/2018 19:00,7:00:00 PM,HAMMOND DR NE @ BARFIELD RD NE,33.919113,-84.360336
1080,902868,0,4/7/2018 17:20,5:20:00 PM,HAMMOND DR NE @ BARFIELD RD NE,33.919113,-84.360336
1081,902868,120,4/7/2018 8:02,8:00:00 AM,HAMMOND DR NE @ BARFIELD RD NE,33.919113,-84.360336
1082,905580,112,4/7/2018 7:01,6:59:00 AM,ROSWELL RD NE @ MIDVALE DR NE,33.873007,-84.381089
1083,905580,172,4/7/2018 13:02,12:59:00 PM,ROSWELL RD NE @ MIDVALE DR NE,33.873007,-84.381089
1084,905580,532,4/7/2018 15:08,2:59:00 PM,ROSWELL RD NE @ MIDVALE DR NE,33.873007,-84.381089
1085,905580,232,4/7/2018 21:05,9:01:00 PM,ROSWELL RD NE @ MIDVALE DR NE,33.873007,-84.381089
1086,905580,172,4/7/2018 14:02,1:59:00 PM,ROSWELL RD NE @ MIDVALE DR NE,33.873007,-84.381089
1087,905580,292,4/7/2018 16:04,3:59:00 PM,ROSWELL RD NE @ MIDVALE DR NE,33.873007,-84.381089
1088,905580,-188,4/7/2018 17:56,5:59:00 PM,ROSWELL RD NE @ MIDVALE DR NE,33.873007,-84.381089
1089,905580,352,4/7/2018 13:25,1:19:00 PM,ROSWELL RD NE @ MIDVALE DR NE,33.873007,-84.381089
1090,905580,292,4/7/2018 15:24,3:19:00 PM,ROSWELL RD NE @ MIDVALE DR NE,33.873007,-84.381089
1091,905580,232,4/7/2018 17:23,5:19:00 PM,ROSWELL RD NE @ MIDVALE DR NE,33.873007,-84.381089
1092,905580,172,4/7/2018 21:24,9:21:00 PM,ROSWELL RD NE @ MIDVALE DR NE,33.873007,-84.381089
1093,905580,-8,4/7/2018 23:01,11:01:00 PM,ROSWELL RD NE @ MIDVALE DR NE,33.873007,-84.381089
1094,905580,-8,4/7/2018 9:39,9:39:00 AM,ROSWELL RD NE @ MIDVALE DR NE,33.873007,-84.381089
1095,905580,-8,4/7/2018 15:39,3:39:00 PM,ROSWELL RD NE @ MIDVALE DR NE,33.873007,-84.381089
1096,905580,412,4/7/2018 16:26,4:19:00 PM,ROSWELL RD NE @ MIDVALE DR NE,33.873007,-84.381089
1097,905580,292,4/7/2018 20:24,8:19:00 PM,ROSWELL RD NE @ MIDVALE DR NE,33.873007,-84.381089
1098,906000,-28,4/7/2018 7:51,7:51:00 AM,ROSWELL RD NE @ IVY PKWY NE,33.857521,-84.381584
1099,906000,92,4/7/2018 9:53,9:51:00 AM,ROSWELL RD NE @ IVY PKWY NE,33.857521,-84.381584
1100,906000,212,4/7/2018 15:55,3:51:00 PM,ROSWELL RD NE @ IVY PKWY NE,33.857521,-84.381584
1101,906000,212,4/7/2018 6:55,6:51:00 AM,ROSWELL RD NE @ IVY PKWY NE,33.857521,-84.381584
1102,906000,152,4/7/2018 18:54,6:51:00 PM,ROSWELL RD NE @ IVY PKWY NE,33.857521,-84.381584
1103,906000,152,4/7/2018 10:14,10:11:00 AM,ROSWELL RD NE @ IVY PKWY NE,33.857521,-84.381584
1104,906000,332,4/7/2018 14:17,2:11:00 PM,ROSWELL RD NE @ IVY PKWY NE,33.857521,-84.381584
1105,906000,32,4/7/2018 8:32,8:31:00 AM,ROSWELL RD NE @ IVY PKWY NE,33.857521,-84.381584
1106,906000,92,4/7/2018 10:33,10:31:00 AM,ROSWELL RD NE @ IVY PKWY NE,33.857521,-84.381584
1107,906000,32,4/7/2018 12:32,12:31:00 PM,ROSWELL RD NE @ IVY PKWY NE,33.857521,-84.381584
1108,906000,92,4/7/2018 20:33,8:31:00 PM,ROSWELL RD NE @ IVY PKWY NE,33.857521,-84.381584
1109,906000,238,4/7/2018 21:15,9:11:00 PM,ROSWELL RD NE @ IVY PKWY NE,33.857521,-84.381584
1110,902816,-162,4/7/2018 8:14,8:16:00 AM,HAMMOND DR NE @ 1005,33.9189,-84.354671
1111,902816,-42,4/7/2018 12:16,12:16:00 PM,HAMMOND DR NE @ 1005,33.9189,-84.354671
1112,902816,-42,4/7/2018 14:16,2:16:00 PM,HAMMOND DR NE @ 1005,33.9189,-84.354671
1113,902816,-42,4/7/2018 18:16,6:16:00 PM,HAMMOND DR NE @ 1005,33.9189,-84.354671
1114,902816,-162,4/7/2018 7:14,7:16:00 AM,HAMMOND DR NE @ 1005,33.9189,-84.354671
1115,902816,-42,4/7/2018 9:16,9:16:00 AM,HAMMOND DR NE @ 1005,33.9189,-84.354671
1116,902816,18,4/7/2018 13:17,1:16:00 PM,HAMMOND DR NE @ 1005,33.9189,-84.354671
1117,902816,78,4/7/2018 8:38,8:36:00 AM,HAMMOND DR NE @ 1005,33.9189,-84.354671
1118,902816,78,4/7/2018 12:38,12:36:00 PM,HAMMOND DR NE @ 1005,33.9189,-84.354671
1119,902816,-222,4/7/2018 20:33,8:36:00 PM,HAMMOND DR NE @ 1005,33.9189,-84.354671
1120,902999,-31,4/7/2018 8:37,8:37:00 AM,HAMMOND DR NE @ 1150,33.918901,-84.349888
1121,902999,89,4/7/2018 14:59,2:57:00 PM,HAMMOND DR NE @ 1150,33.918901,-84.349888
1122,902999,-31,4/7/2018 17:17,5:17:00 PM,HAMMOND DR NE @ 1150,33.918901,-84.349888
1123,902999,-31,4/7/2018 15:57,3:57:00 PM,HAMMOND DR NE @ 1150,33.918901,-84.349888
1124,902999,162,4/7/2018 21:43,9:40:00 PM,HAMMOND DR NE @ 1150,33.918901,-84.349888
1125,903199,69,4/7/2018 8:42,8:40:00 AM,HAMMOND DR@GLENRIDGE DR,33.919057,-84.363941
1126,903199,69,4/7/2018 9:42,9:40:00 AM,HAMMOND DR@GLENRIDGE DR,33.919057,-84.363941
1127,903199,69,4/7/2018 13:02,1:00:00 PM,HAMMOND DR@GLENRIDGE DR,33.919057,-84.363941
1128,903199,129,4/7/2018 15:03,3:00:00 PM,HAMMOND DR@GLENRIDGE DR,33.919057,-84.363941
1129,903199,69,4/7/2018 16:02,4:00:00 PM,HAMMOND DR@GLENRIDGE DR,33.919057,-84.363941
1130,903158,12,4/7/2018 8:45,8:44:00 AM,JOHNSON FERRY RD NE @ ROSWELL RD,33.924741,-84.378245
1131,903158,132,4/7/2018 20:49,8:46:00 PM,JOHNSON FERRY RD NE @ ROSWELL RD,33.924741,-84.378245
1132,905644,71,4/7/2018 9:01,8:59:00 AM,ROSWELL RD NE @ RICKENBACKER DR NE,33.870358,-84.381109
1133,905644,551,4/7/2018 15:09,2:59:00 PM,ROSWELL RD NE @ RICKENBACKER DR NE,33.870358,-84.381109
1134,905644,-49,4/7/2018 16:59,4:59:00 PM,ROSWELL RD NE @ RICKENBACKER DR NE,33.870358,-84.381109
1135,905644,311,4/7/2018 16:05,3:59:00 PM,ROSWELL RD NE @ RICKENBACKER DR NE,33.870358,-84.381109
1136,905644,71,4/7/2018 9:21,9:19:00 AM,ROSWELL RD NE @ RICKENBACKER DR NE,33.870358,-84.381109
1137,905644,131,4/7/2018 11:22,11:19:00 AM,ROSWELL RD NE @ RICKENBACKER DR NE,33.870358,-84.381109
1138,905644,251,4/7/2018 17:24,5:19:00 PM,ROSWELL RD NE @ RICKENBACKER DR NE,33.870358,-84.381109
1139,905644,11,4/7/2018 23:02,11:01:00 PM,ROSWELL RD NE @ RICKENBACKER DR NE,33.870358,-84.381109
1140,905644,191,4/7/2018 10:23,10:19:00 AM,ROSWELL RD NE @ RICKENBACKER DR NE,33.870358,-84.381109
1141,905644,311,4/7/2018 14:25,2:19:00 PM,ROSWELL RD NE @ RICKENBACKER DR NE,33.870358,-84.381109
1142,905644,191,4/7/2018 18:23,6:19:00 PM,ROSWELL RD NE @ RICKENBACKER DR NE,33.870358,-84.381109
1143,905529,11,4/7/2018 9:55,9:54:00 AM,ROSWELL RD NE @ RICKENBACKER DR NE,33.870188,-84.380989
1144,905529,131,4/7/2018 15:57,3:54:00 PM,ROSWELL RD NE @ RICKENBACKER DR NE,33.870188,-84.380989
1145,905529,131,4/7/2018 12:17,12:14:00 PM,ROSWELL RD NE @ RICKENBACKER DR NE,33.870188,-84.380989
1146,905529,311,4/7/2018 14:20,2:14:00 PM,ROSWELL RD NE @ RICKENBACKER DR NE,33.870188,-84.380989
1147,905529,-49,4/7/2018 6:34,6:34:00 AM,ROSWELL RD NE @ RICKENBACKER DR NE,33.870188,-84.380989
1148,905529,-49,4/7/2018 8:34,8:34:00 AM,ROSWELL RD NE @ RICKENBACKER DR NE,33.870188,-84.380989
1149,905529,131,4/7/2018 17:17,5:14:00 PM,ROSWELL RD NE @ RICKENBACKER DR NE,33.870188,-84.380989
1150,906335,-9,4/7/2018 10:04,10:04:00 AM,ROSWELL RD NE @ 5491,33.905167,-84.378537
1151,906335,-9,4/7/2018 15:04,3:04:00 PM,ROSWELL RD NE @ 5491,33.905167,-84.378537
1152,906335,171,4/7/2018 12:27,12:24:00 PM,ROSWELL RD NE @ 5491,33.905167,-84.378537
1153,906335,411,4/7/2018 14:31,2:24:00 PM,ROSWELL RD NE @ 5491,33.905167,-84.378537
1154,906335,-9,4/7/2018 18:24,6:24:00 PM,ROSWELL RD NE @ 5491,33.905167,-84.378537
1155,906335,-9,4/7/2018 12:44,12:44:00 PM,ROSWELL RD NE @ 5491,33.905167,-84.378537
1156,906335,-69,4/7/2018 20:43,8:44:00 PM,ROSWELL RD NE @ 5491,33.905167,-84.378537
1157,906335,111,4/7/2018 15:26,3:24:00 PM,ROSWELL RD NE @ 5491,33.905167,-84.378537
1158,906335,111,4/7/2018 17:26,5:24:00 PM,ROSWELL RD NE @ 5491,33.905167,-84.378537
1159,901755,-258,4/7/2018 11:12,11:16:00 AM,PIEDMONT RD NE @ MIAMI CIR NE,33.828013,-84.367303
1160,901755,6,4/7/2018 21:37,9:36:00 PM,PIEDMONT RD NE @ MIAMI CIR NE,33.828013,-84.367303
1161,906294,106,4/7/2018 14:11,2:09:00 PM,ROSWELL RD NE @ HILDERBRAND DR NE,33.922714,-84.379102
1162,906294,46,4/7/2018 7:10,7:09:00 AM,ROSWELL RD NE @ HILDERBRAND DR NE,33.922714,-84.379102
1163,906294,46,4/7/2018 9:10,9:09:00 AM,ROSWELL RD NE @ HILDERBRAND DR NE,33.922714,-84.379102
1164,906294,166,4/7/2018 13:12,1:09:00 PM,ROSWELL RD NE @ HILDERBRAND DR NE,33.922714,-84.379102
1165,906294,106,4/7/2018 15:11,3:09:00 PM,ROSWELL RD NE @ HILDERBRAND DR NE,33.922714,-84.379102
1166,906294,106,4/7/2018 17:11,5:09:00 PM,ROSWELL RD NE @ HILDERBRAND DR NE,33.922714,-84.379102
1167,906294,-67,4/7/2018 21:08,9:09:00 PM,ROSWELL RD NE @ HILDERBRAND DR NE,33.922714,-84.379102
1168,906294,166,4/7/2018 12:32,12:29:00 PM,ROSWELL RD NE @ HILDERBRAND DR NE,33.922714,-84.379102
1169,906294,466,4/7/2018 14:37,2:29:00 PM,ROSWELL RD NE @ HILDERBRAND DR NE,33.922714,-84.379102
1170,906294,-74,4/7/2018 20:28,8:29:00 PM,ROSWELL RD NE @ HILDERBRAND DR NE,33.922714,-84.379102
1171,906294,-74,4/7/2018 6:48,6:49:00 AM,ROSWELL RD NE @ HILDERBRAND DR NE,33.922714,-84.379102
1172,906294,106,4/7/2018 16:51,4:49:00 PM,ROSWELL RD NE @ HILDERBRAND DR NE,33.922714,-84.379102
1173,906294,113,4/7/2018 22:47,10:45:00 PM,ROSWELL RD NE @ HILDERBRAND DR NE,33.922714,-84.379102
1174,906294,-67,4/8/2018 2:04,2:05:00 AM,ROSWELL RD NE @ HILDERBRAND DR NE,33.922714,-84.379102
1175,906294,106,4/7/2018 9:31,9:29:00 AM,ROSWELL RD NE @ HILDERBRAND DR NE,33.922714,-84.379102
1176,906294,233,4/7/2018 21:31,9:27:00 PM,ROSWELL RD NE @ HILDERBRAND DR NE,33.922714,-84.379102
1177,903010,-11,4/7/2018 14:15,2:15:00 PM,HAMMOND DR NE @ BARFIELD RD,33.918943,-84.360434
1178,903010,169,4/7/2018 16:18,4:15:00 PM,HAMMOND DR NE @ BARFIELD RD,33.918943,-84.360434
1179,903010,-11,4/7/2018 18:15,6:15:00 PM,HAMMOND DR NE @ BARFIELD RD,33.918943,-84.360434
1180,903010,-131,4/7/2018 7:13,7:15:00 AM,HAMMOND DR NE @ BARFIELD RD,33.918943,-84.360434
1181,903010,49,4/7/2018 17:16,5:15:00 PM,HAMMOND DR NE @ BARFIELD RD,33.918943,-84.360434
1182,903010,229,4/7/2018 16:39,4:35:00 PM,HAMMOND DR NE @ BARFIELD RD,33.918943,-84.360434
1183,903010,-34,4/7/2018 22:30,10:30:00 PM,HAMMOND DR NE @ BARFIELD RD,33.918943,-84.360434
1184,903010,-131,4/7/2018 8:53,8:55:00 AM,HAMMOND DR NE @ BARFIELD RD,33.918943,-84.360434
1185,903010,-191,4/7/2018 14:52,2:55:00 PM,HAMMOND DR NE @ BARFIELD RD,33.918943,-84.360434
1186,903010,-131,4/7/2018 13:33,1:35:00 PM,HAMMOND DR NE @ BARFIELD RD,33.918943,-84.360434
1187,903010,-11,4/7/2018 19:35,7:35:00 PM,HAMMOND DR NE @ BARFIELD RD,33.918943,-84.360434
1188,905762,583,4/7/2018 15:11,3:01:00 PM,ROSWELL RD NE @ LAKEMOORE DR,33.864746,-84.380757
1189,905762,-77,4/7/2018 9:40,9:41:00 AM,ROSWELL RD NE @ LAKEMOORE DR,33.864746,-84.380757
1190,905762,343,4/7/2018 16:27,4:21:00 PM,ROSWELL RD NE @ LAKEMOORE DR,33.864746,-84.380757
1191,902665,154,4/7/2018 16:17,4:14:00 PM,HAMMOND DR NE @ GLENRIDGE DR NE,33.918924,-84.363267
1192,902665,-26,4/7/2018 18:14,6:14:00 PM,HAMMOND DR NE @ GLENRIDGE DR NE,33.918924,-84.363267
1193,905411,127,4/7/2018 17:55,5:52:00 PM,ROSWELL RD NE @ LAND O LAKES DR NE,33.862831,-84.380189
1194,905411,67,4/7/2018 19:54,7:52:00 PM,ROSWELL RD NE @ LAND O LAKES DR NE,33.862831,-84.380189
1195,905411,367,4/7/2018 14:19,2:12:00 PM,ROSWELL RD NE @ LAND O LAKES DR NE,33.862831,-84.380189
1196,905409,448,4/7/2018 16:14,4:06:00 PM,PIEDMONT RD NE @ CARSON LN NE,33.848452,-84.374182
1197,905409,-32,4/7/2018 20:06,8:06:00 PM,PIEDMONT RD NE @ CARSON LN NE,33.848452,-84.374182
1198,905409,448,4/7/2018 15:34,3:26:00 PM,PIEDMONT RD NE @ CARSON LN NE,33.848452,-84.374182
1199,905409,88,4/7/2018 15:48,3:46:00 PM,PIEDMONT RD NE @ CARSON LN NE,33.848452,-84.374182
1200,905409,88,4/7/2018 8:28,8:26:00 AM,PIEDMONT RD NE @ CARSON LN NE,33.848452,-84.374182
1201,905409,88,4/7/2018 22:10,10:08:00 PM,PIEDMONT RD NE @ CARSON LN NE,33.848452,-84.374182
1202,900478,41,4/7/2018 16:40,4:39:00 PM,PIEDMONT RD NE @ ALPINE RD NE,33.829409,-84.367652
1203,900478,101,4/7/2018 10:01,9:59:00 AM,PIEDMONT RD NE @ ALPINE RD NE,33.829409,-84.367652
1204,905814,43,4/7/2018 19:54,7:53:00 PM,ROSWELL RD NE @ OSNER DR NE,33.895022,-84.381388
1205,905814,403,4/7/2018 16:20,4:13:00 PM,ROSWELL RD NE @ OSNER DR NE,33.895022,-84.381388
1206,902696,53,4/7/2018 7:12,7:11:00 AM,ROSWELL RD NE @ GLENRIDGE DR NE,33.902783,-84.378606
1207,902696,293,4/7/2018 17:16,5:11:00 PM,ROSWELL RD NE @ GLENRIDGE DR NE,33.902783,-84.378606
1208,902696,113,4/7/2018 15:33,3:31:00 PM,ROSWELL RD NE @ GLENRIDGE DR NE,33.902783,-84.378606
1209,902696,113,4/7/2018 14:13,2:11:00 PM,ROSWELL RD NE @ GLENRIDGE DR NE,33.902783,-84.378606
1210,902746,105,4/7/2018 11:04,11:02:00 AM,JOHNSON FERRY RD NE @ GLENRIDGE DR NE,33.922431,-84.367997
1211,905812,270,4/7/2018 17:22,5:17:00 PM,ROSWELL RD NE @ WINDSOR PKWY NE,33.879156,-84.379852
1212,905812,30,4/7/2018 20:18,8:17:00 PM,ROSWELL RD NE @ WINDSOR PKWY NE,33.879156,-84.379852
1213,905408,549,4/7/2018 17:35,5:25:00 PM,PIEDMONT RD NE @ 3500,33.849614,-84.377089
1214,905408,129,4/7/2018 19:28,7:25:00 PM,PIEDMONT RD NE @ 3500,33.849614,-84.377089
1215,905408,69,4/7/2018 23:09,11:07:00 PM,PIEDMONT RD NE @ 3500,33.849614,-84.377089
1216,906363,-119,4/7/2018 8:50,8:51:00 AM,JOHNSON FERRY RD@KAYRON DR,33.923038,-84.370644
1217,210802,100,4/7/2018 17:23,5:21:00 PM,ROSWELL RD@OSNER DR,33.894978,-84.381269
1218,905413,214,4/7/2018 21:17,9:13:00 PM,ROSWELL RD NE @ CHASTAIN DR NE,33.867548,-84.381031
1219,905870,267,4/7/2018 21:22,9:17:00 PM,ROSWELL RD NE@MYSTIC CT,33.884946,-84.380978
1220,906305,186,4/7/2018 21:25,9:21:00 PM,ROSWELL RD NE @ GLENRIDGE DR NE,33.902489,-84.378456
1221,906305,6,4/8/2018 0:40,12:39:00 AM,ROSWELL RD NE @ GLENRIDGE DR NE,33.902489,-84.378456
